X,Y,FID,GISDBID,Mode,Route,Direction,Stop_Code,Stop,Lat,Lon,Sign_Up,Weekday_On,Weekday_Of,Saturday_O,Saturday_1,Sunday_Ons,Sunday_Off
-8369295.65,4852368.466,1,1732133S,Bus,17,Southbound,32133,Pattison Av & 20th St - FS,39.906528,-75.182662,Fall 2023,0,5,0,2,0,0
-8368920.281,4852302.582,2,1721347S,Bus,17,Southbound,21347,Pattison Av & 20th St - MBFS,39.906074,-75.17929,Fall 2023,0,0,0,1,0,2
-8368224.757,4852188.52,3,17363S,Bus,17,Southbound,363,Pattison Av & Broad St - FS,39.905288,-75.173042,Fall 2023,0,0,2,3,2,7
-8364571.919,4858492.479,4,17593S,Bus,17,Southbound,593,Penn's Landing - 1,39.948715,-75.140228,Fall 2023,55,0,40,0,32,0
-8368225.536,4858587.156,5,1714929S,Bus,17,Southbound,14929,W Rittenhouse Square & Locust St,39.949367,-75.173049,Fall 2023,73,51,55,31,30,28
-8367439.175,4878000.333,6,1825973E,Bus,18,Eastbound,25973,Cedarbrook Plaza - 4,40.082927,-75.165985,Fall 2023,173,0,158,0,110,0
-8367708.346,4878120.221,7,1825974E,Bus,18,Eastbound,25974,Cedarbrook Plaza Stop - 5,40.083751,-75.168403,Fall 2023,16,0,4,0,9,0
-8367918.962,4878000.333,8,1815421E,Bus,18,Eastbound,15421,Cedarbrook Plaza Stop - 6,40.082927,-75.170295,Fall 2023,212,0,167,0,110,1
-8368188.244,4877947.664,9,18368E,Bus,18,Eastbound,368,Cheltenham Av & Gowen Av,40.082565,-75.172714,Fall 2023,22,0,8,1,14,1
-8367329.525,4872556.566,10,18371E,Bus,18,Eastbound,371,Chew Av & Chelten Av,40.045501,-75.165,Fall 2023,185,160,119,67,92,57
-8366929.555,4872235.932,11,1815587E,Bus,18,Eastbound,15587,Chew Av & Church Ln,40.043296,-75.161407,Fall 2023,82,52,74,36,46,26
-8368667.252,4873630.508,12,1815521E,Bus,18,Eastbound,15521,Chew Av & Cliveden St,40.052886,-75.177017,Fall 2023,47,17,16,11,13,8
-8368418.341,4873434.179,13,1815523E,Bus,18,Eastbound,15523,Chew Av & Duval St,40.051536,-75.174781,Fall 2023,37,13,17,7,14,2
-8367651.461,4872817.878,14,1815579E,Bus,18,Eastbound,15579,Chew Av & Haines St,40.047298,-75.167892,Fall 2023,25,12,10,3,8,6
-8367996.218,4873097.957,15,1815526E,Bus,18,Eastbound,15526,Chew Av & Herman St,40.049224,-75.170989,Fall 2023,53,9,22,6,16,8
-8367788.162,4872927.67,16,1815527E,Bus,18,Eastbound,15527,Chew Av & High St,40.048053,-75.16912,Fall 2023,16,4,12,5,9,3
-8369035.831,4873933.443,17,1815519E,Bus,18,Eastbound,15519,Chew Av & Hortter St,40.054969,-75.180328,Fall 2023,53,18,28,9,14,7
-8368543.242,4873532.925,18,1815522E,Bus,18,Eastbound,15522,Chew Av & Johnson St,40.052215,-75.175903,Fall 2023,31,10,17,6,10,0
-8367085.847,4872362.439,19,1815586E,Bus,18,Eastbound,15586,Chew Av & Locust Av,40.044166,-75.162811,Fall 2023,50,20,28,10,22,11
-8366639.122,4872002.989,20,1815779E,Bus,18,Eastbound,15779,Chew Av & Penn Blvd,40.041694,-75.158798,Fall 2023,88,26,58,25,59,14
-8367458.656,4872660.392,21,1815584E,Bus,18,Eastbound,15584,Chew Av & Price St,40.046215,-75.16616,Fall 2023,11,16,4,8,4,1
-8367551.274,4872736.299,22,1815582E,Bus,18,Eastbound,15582,Chew Av & Rittenhouse St,40.046737,-75.166992,Fall 2023,15,6,10,5,4,2
-8368087.166,4873168.487,23,1815525E,Bus,18,Eastbound,15525,Chew Av & Tulpehocken St,40.049709,-75.171806,Fall 2023,56,9,28,8,23,2
-8368788.701,4873732.6,24,1815520E,Bus,18,Eastbound,15520,Chew Av & Upsal St,40.053588,-75.178108,Fall 2023,103,26,36,9,30,14
-8368268.951,4873311.003,25,1815524E,Bus,18,Eastbound,15524,Chew Av & Washington Ln,40.050689,-75.173439,Fall 2023,228,52,102,29,90,25
-8358481.518,4877087.981,26,1820851E,Bus,18,Eastbound,20851,Fox Chase Loop,40.076656,-75.085517,Fall 2023,0,81,0,69,0,48
-8368525.431,4877547.42,27,1815432E,Bus,18,Eastbound,15432,Michener Av & Gowen Av,40.079814,-75.175743,Fall 2023,48,7,18,7,11,7
-8368189.914,4877294.421,28,1815451E,Bus,18,Eastbound,15451,Michener Av & Mt Airy Av,40.078075,-75.172729,Fall 2023,22,1,9,3,8,2
-8367936.773,4877102.966,29,1815453E,Bus,18,Eastbound,15453,Michener Av & Mt Pleasant Av,40.076759,-75.170455,Fall 2023,23,7,9,2,6,2
-8368323.275,4877396.551,30,18369E,Bus,18,Eastbound,369,Michener Av & Wadsworth Av - FS,40.078777,-75.173927,Fall 2023,86,11,43,6,39,6
-8368090.506,4876881.546,31,1815456E,Bus,18,Eastbound,15456,Mt Pleasant Av & Williams Av,40.075237,-75.171836,Fall 2023,38,11,12,11,7,5
-8365740.551,4871708.546,32,1820606E,Bus,18,Eastbound,20606,Ogontz Av & Olney Av - MBNS,40.039669,-75.150726,Fall 2023,1,1,0,0,0,0
-8362930.179,4871135.534,33,1815820E,Bus,18,Eastbound,15820,Olney Av & 2nd St,40.035728,-75.12548,Fall 2023,20,47,16,44,9,27
-8363182.429,4871179.298,34,1815819E,Bus,18,Eastbound,15819,Olney Av & 3rd St,40.036029,-75.127746,Fall 2023,28,51,17,33,11,23
-8363506.925,4871233.094,35,1815817E,Bus,18,Eastbound,15817,Olney Av & 5th St,40.036399,-75.130661,Fall 2023,218,314,141,191,88,138
-8363719.212,4871270.315,36,1815815E,Bus,18,Eastbound,15815,Olney Av & 6th St,40.036655,-75.132568,Fall 2023,14,33,11,17,7,4
-8363900.996,4871298.085,37,1815814E,Bus,18,Eastbound,15814,Olney Av & 7th St,40.036846,-75.134201,Fall 2023,17,32,4,21,3,15
-8364325.569,4871395.646,38,1815799E,Bus,18,Eastbound,15799,Olney Av & 10th St,40.037517,-75.138015,Fall 2023,23,29,17,20,12,11
-8364498.003,4871446.681,39,1815798E,Bus,18,Eastbound,15798,Olney Av & 11th St,40.037868,-75.139564,Fall 2023,69,34,49,16,27,17
-8364819.048,4871540.899,40,1815795E,Bus,18,Eastbound,15795,Olney Av & 13th St - FS,40.038516,-75.142448,Fall 2023,105,35,81,24,73,11
-8365290.375,4871610.255,41,1815794E,Bus,18,Eastbound,15794,Olney Av & 15th St,40.038993,-75.146682,Fall 2023,16,23,1,1,2,4
-8365506.112,4871603.712,42,1815793E,Bus,18,Eastbound,15793,Olney Av & 16th St,40.038948,-75.14862,Fall 2023,24,7,3,2,1,4
-8365927.345,4871639.19,43,1815791E,Bus,18,Eastbound,15791,Olney Av & 18th St - MBNS,40.039192,-75.152404,Fall 2023,27,7,12,4,2,5
-8366128.611,4871672.923,44,1815789E,Bus,18,Eastbound,15789,Olney Av & 20th St - FS,40.039424,-75.154212,Fall 2023,42,11,19,3,7,3
-8366343.569,4871799.423,45,1815786E,Bus,18,Eastbound,15786,Olney Av & 20th St - MBNS,40.040294,-75.156143,Fall 2023,7,5,2,1,5,1
-8362063.891,4870993.486,46,1815698E,Bus,18,Eastbound,15698,Olney Av & B St,40.034751,-75.117698,Fall 2023,15,77,5,33,5,22
-8365098.46,4871615.78,47,18372E,Bus,18,Eastbound,372,Olney Av & Broad St,40.039031,-75.144958,Fall 2023,436,807,226,294,110,170
-8365009.293,4871593.098,48,18373E,Bus,18,Eastbound,373,Olney Av & Broad St - FS,40.038875,-75.144157,Fall 2023,754,515,485,329,399,288
-8366468.358,4871879.249,49,1815782E,Bus,18,Eastbound,15782,Olney Av & Elkins Av,40.040843,-75.157264,Fall 2023,30,12,12,5,7,3
-8362491.914,4871064.001,50,1815697E,Bus,18,Eastbound,15697,Olney Av & Front St,40.035236,-75.121543,Fall 2023,81,234,53,187,34,115
-8362762.866,4871108.927,51,1815822E,Bus,18,Eastbound,15822,Olney Av & Mascher St,40.035545,-75.123977,Fall 2023,32,69,13,29,18,29
-8365682.776,4871601.967,52,1815792E,Bus,18,Eastbound,15792,Olney Av & Ogontz Av,40.038936,-75.150207,Fall 2023,198,50,25,6,18,8
-8361774.349,4870948.56,53,1830996E,Bus,18,Eastbound,30996,Olney Av & Rising Sun Av,40.034442,-75.115097,Fall 2023,142,100,80,59,36,44
-8364165.937,4871347.375,54,1815800E,Bus,18,Eastbound,15800,Olney Av & Wagner Av,40.037185,-75.136581,Fall 2023,2,2,4,2,6,1
-8358245.41,4875170.149,55,1815875E,Bus,18,Eastbound,15875,Oxford Av & Bleigh Av,40.063472,-75.083396,Fall 2023,9,64,2,25,2,18
-8358387.342,4876716.14,56,1823620E,Bus,18,Eastbound,23620,Oxford Av & Borbeck Av - FS,40.0741,-75.084671,Fall 2023,0,27,2,13,0,9
-8358354.169,4876413.119,57,1815879E,Bus,18,Eastbound,15879,Oxford Av & Hartel Av - FS,40.072017,-75.084373,Fall 2023,1,21,0,3,1,4
-8358377.991,4876604.561,58,1815880E,Bus,18,Eastbound,15880,Oxford Av & Hasbrook Av,40.073333,-75.084587,Fall 2023,0,14,0,7,0,11
-8358419.513,4876978.58,59,18467E,Bus,18,Eastbound,467,Oxford Av & Loney St,40.075904,-75.08496,Fall 2023,10,56,2,27,1,23
-8358298.954,4875630.226,60,1815877E,Bus,18,Eastbound,15877,Oxford Av & Rockwell Av,40.066635,-75.083877,Fall 2023,1,15,1,1,1,2
-8358330.347,4876221.1,61,1815878E,Bus,18,Eastbound,15878,Oxford Av & Rockwell Av - MBFS,40.070697,-75.084159,Fall 2023,0,6,0,1,0,0
-8358251.421,4875362.73,62,1815876E,Bus,18,Eastbound,15876,Oxford Av & Verree Rd - MBNS,40.064796,-75.08345,Fall 2023,4,43,3,22,3,11
-8368982.286,4874248.604,63,1815517E,Bus,18,Eastbound,15517,Phil Ellena St & Boyers St,40.057136,-75.179847,Fall 2023,13,6,8,5,3,2
-8369143.699,4874043.828,64,1815518E,Bus,18,Eastbound,15518,Phil Ellena St & Chew Av,40.055728,-75.181297,Fall 2023,84,23,28,13,31,9
-8361075.374,4871737.917,65,1815835E,Bus,18,Eastbound,15835,Rising Sun Av & Adams - MBFS,40.039871,-75.108818,Fall 2023,78,108,59,82,38,45
-8361220.534,4871612.581,66,1815834E,Bus,18,Eastbound,15834,Rising Sun Av & Adams Av,40.039009,-75.110122,Fall 2023,50,111,18,69,18,56
-8360046.003,4872624.329,67,1815843E,Bus,18,Eastbound,15843,Rising Sun Av & Benner St,40.045967,-75.099571,Fall 2023,16,38,5,22,6,20
-8360581.004,4872166.136,68,1815839E,Bus,18,Eastbound,15839,Rising Sun Av & Cheltenham Av,40.042816,-75.104377,Fall 2023,38,105,13,55,15,38
-8361648.558,4871098.895,69,1828404E,Bus,18,Eastbound,28404,Rising Sun Av & Chew Av - FS,40.035476,-75.113967,Fall 2023,8,4,4,6,4,3
-8361423.581,4871441.737,70,1815833E,Bus,18,Eastbound,15833,Rising Sun Av & Chew Av - MBFS,40.037834,-75.111946,Fall 2023,5,19,0,8,0,6
-8360220.885,4872474.988,71,1815842E,Bus,18,Eastbound,15842,Rising Sun Av & Comly St,40.04494,-75.101142,Fall 2023,42,112,22,65,12,40
-8358293.054,4874869.503,72,1815874E,Bus,18,Eastbound,15874,Rising Sun Av & Cottman Av,40.061405,-75.083824,Fall 2023,27,528,15,197,10,136
-8359882.919,4872768,73,1815845E,Bus,18,Eastbound,15845,Rising Sun Av & Devereaux Av,40.046955,-75.098106,Fall 2023,38,61,12,32,14,25
-8360847.725,4871935.957,74,1815837E,Bus,18,Eastbound,15837,Rising Sun Av & Godfrey Av,40.041233,-75.106773,Fall 2023,30,69,13,24,6,30
-8359447.215,4873353.177,75,1815850E,Bus,18,Eastbound,15850,Rising Sun Av & Hellerman St,40.050979,-75.094192,Fall 2023,27,54,20,34,4,22
-8359067.616,4873855.781,76,18375E,Bus,18,Eastbound,375,Rising Sun Av & Knorr St,40.054435,-75.090782,Fall 2023,7,39,3,31,3,13
-8359609.407,4873134.604,77,1815848E,Bus,18,Eastbound,15848,Rising Sun Av & Levick St,40.049476,-75.095649,Fall 2023,28,95,10,75,6,43
-8358933.364,4874033.357,78,1815869E,Bus,18,Eastbound,15869,Rising Sun Av & Longshore Av,40.055656,-75.089576,Fall 2023,24,99,11,48,6,52
-8359326.656,4873512.419,79,1815851E,Bus,18,Eastbound,15851,Rising Sun Av & Magee Av,40.052074,-75.093109,Fall 2023,17,49,9,28,3,22
-8359223.018,4873651.159,80,1815852E,Bus,18,Eastbound,15852,Rising Sun Av & Martins Mill Rd,40.053028,-75.092178,Fall 2023,31,73,7,31,7,25
-8358656.513,4874401.171,81,1832059E,Bus,18,Eastbound,32059,Rising Sun Av & Princeton Av,40.058185,-75.087089,Fall 2023,5,21,1,7,1,13
-8358712.618,4874325.106,82,1831104E,Bus,18,Eastbound,31104,Rising Sun Av & Princeton Av - MBNS,40.057662,-75.087593,Fall 2023,0,8,2,11,0,4
-8359742.768,4872956.026,83,1815847E,Bus,18,Eastbound,15847,Rising Sun Av & Robbins St,40.048248,-75.096847,Fall 2023,37,48,4,26,4,19
-8358525.712,4874569.303,84,1815872E,Bus,18,Eastbound,15872,Rising Sun Av & Saint Vincent St,40.059341,-75.085914,Fall 2023,9,54,2,21,5,14
-8360749.987,4872021.31,85,1815838E,Bus,18,Eastbound,15838,Rising Sun Av & Sanger St,40.04182,-75.105895,Fall 2023,15,36,5,16,4,7
-8358798.334,4874207.591,86,1815870E,Bus,18,Eastbound,15870,Rising Sun Av & Tyson Av,40.056854,-75.088363,Fall 2023,8,41,5,19,2,11
-8360396.77,4872323.615,87,1815841E,Bus,18,Eastbound,15841,Rising Sun Av & Van Kirk St,40.043899,-75.102722,Fall 2023,64,141,29,67,11,54
-8368439.603,4878091.413,88,1815424E,Bus,18,Eastbound,15424,Roumfort Rd & Cheltenham Av - FS,40.083553,-75.174972,Fall 2023,18,0,9,0,7,0
-8368718.125,4877723.461,89,1815431E,Bus,18,Eastbound,15431,Roumfort Rd & Michener Av,40.081024,-75.177474,Fall 2023,53,38,21,24,6,14
-8368556.823,4877932.678,90,1815428E,Bus,18,Eastbound,15428,Roumfort Rd & Pickering Av,40.082462,-75.176025,Fall 2023,29,1,12,6,10,2
-8368835.344,4874476.655,91,1815516E,Bus,18,Eastbound,15516,Sprague St & Phil Ellena St,40.058704,-75.178527,Fall 2023,55,17,39,11,26,3
-8367836.586,4874928.264,92,1818468E,Bus,18,Eastbound,18468,Stenton Av & Cardeza St,40.061809,-75.169555,Fall 2023,1,1,0,0,0,0
-8365732.87,4873464.137,93,1831520E,Bus,18,Eastbound,31520,Stenton Av & Chelten Av,40.051742,-75.150657,Fall 2023,1,2,0,0,0,0
-8368285.871,4875287.821,94,1815585E,Bus,18,Eastbound,15585,Stenton Av & Dorset St,40.064281,-75.173591,Fall 2023,1,5,3,3,0,0
-8368197.595,4875218.439,95,1815583E,Bus,18,Eastbound,15583,Stenton Av & Phi Ellena St,40.063804,-75.172798,Fall 2023,10,14,3,4,3,1
-8367962.265,4875021.498,96,1832387E,Bus,18,Eastbound,32387,Stenton Av & Upsal St - FS,40.06245,-75.170684,Fall 2023,2,2,0,0,0,0
-8367399.211,4874600.864,97,18254E,Bus,18,Eastbound,254,Stenton Av & Washington Ln,40.059558,-75.165626,Fall 2023,9,1,0,0,0,0
-8366295.145,4873804.734,98,1831436E,Bus,18,Eastbound,31436,Stenton Av & Wyncote Av,40.054084,-75.155708,Fall 2023,5,1,0,0,0,0
-8367921.523,4876435.376,99,1828403E,Bus,18,Eastbound,28403,Thouron Av & Gorgas Ln,40.07217,-75.170318,Fall 2023,41,14,10,4,8,6
-8368218.746,4876658.386,100,1815457E,Bus,18,Eastbound,15457,Thouron Av & Mt Pleasant Av - FS,40.073703,-75.172988,Fall 2023,87,9,11,8,16,1
-8367531.682,4876145.166,101,1815479E,Bus,18,Eastbound,15479,Thouron Av & Phil Ellena St,40.070175,-75.166816,Fall 2023,58,14,23,5,17,10
-8368090.506,4876564.119,102,1815459E,Bus,18,Eastbound,15459,Thouron Av & Sedgwick St,40.073055,-75.171836,Fall 2023,32,8,13,1,3,2
-8367377.949,4876029.084,103,1815481E,Bus,18,Eastbound,15481,Thouron Av & Sharpnack St,40.069377,-75.165435,Fall 2023,27,13,13,9,13,3
-8367255.721,4875930.895,104,1815483E,Bus,18,Eastbound,15483,Thouron Av & Upsal St,40.068702,-75.164337,Fall 2023,64,24,29,9,17,4
-8367786.492,4876333.838,105,1815461E,Bus,18,Eastbound,15461,Thouron Av & Vernon Rd,40.071472,-75.169105,Fall 2023,68,16,19,8,17,7
-8367676.954,4875431.531,106,1815488E,Bus,18,Eastbound,15488,Upsal St & Lowber Av,40.065269,-75.168121,Fall 2023,27,17,9,9,8,13
-8367866.308,4875196.767,107,18370E,Bus,18,Eastbound,370,Upsal St & Mansfield Av,40.063655,-75.169822,Fall 2023,9,10,5,6,4,4
-8367975.846,4875060.915,108,1815490E,Bus,18,Eastbound,15490,Upsal St & Stenton Av,40.062721,-75.170806,Fall 2023,40,55,19,18,14,10
-8367406.002,4875759.977,109,1815484E,Bus,18,Eastbound,15484,Upsal St & Woolston Av,40.067527,-75.165687,Fall 2023,61,17,23,14,19,5
-8368702.874,4875000.407,110,1815510E,Bus,18,Eastbound,15510,Vernon Rd & Anderson St,40.062305,-75.177337,Fall 2023,4,4,6,0,1,0
-8368736.047,4874809.579,111,1815514E,Bus,18,Eastbound,15514,Vernon Rd & Ardleigh St,40.060993,-75.177635,Fall 2023,12,3,4,1,6,5
-8368791.262,4874654.242,112,1815515E,Bus,18,Eastbound,15515,Vernon Rd & Blakemore St,40.059925,-75.178131,Fall 2023,30,15,8,8,7,9
-8368585.655,4875232.257,113,1815509E,Bus,18,Eastbound,15509,Vernon Rd & Crittenden St,40.063899,-75.176284,Fall 2023,27,6,9,1,7,4
-8368504.169,4875399.967,114,1815506E,Bus,18,Eastbound,15506,Vernon Rd & Stenton Av - FS,40.065052,-75.175552,Fall 2023,64,21,34,13,21,4
-8367786.492,4877819.485,115,1820850W,Bus,18,Westbound,20850,Cedarbrook Plaza - 1,40.081684,-75.169105,Fall 2023,2,138,3,131,2,84
-8367639.55,4877684.034,116,1825972W,Bus,18,Westbound,25972,Cedarbrook Plaza - 2,40.080753,-75.167785,Fall 2023,0,65,0,42,0,24
-8367475.688,4877902.707,117,1815420W,Bus,18,Westbound,15420,Cedarbrook Plaza - 3,40.082256,-75.166313,Fall 2023,10,73,7,71,4,45
-8367439.175,4878000.333,118,1825973W,Bus,18,Westbound,25973,Cedarbrook Plaza - 4,40.082927,-75.165985,Fall 2023,0,38,0,37,0,28
-8368293.552,4878004.843,119,1817597W,Bus,18,Westbound,17597,Cheltenham Av & Elaine St,40.082958,-75.17366,Fall 2023,0,3,1,3,0,2
-8368223.087,4877950.429,120,1817598W,Bus,18,Westbound,17598,Cheltenham Av & Gowan Av,40.082584,-75.173027,Fall 2023,0,4,0,1,0,2
-8367323.626,4872570.962,121,18223W,Bus,18,Westbound,223,Chew Av & Chelten Av - FS,40.0456,-75.164947,Fall 2023,99,162,42,106,30,77
-8366909.183,4872237.096,122,1815919W,Bus,18,Westbound,15919,Chew Av & Church Ln,40.043304,-75.161224,Fall 2023,52,93,44,64,35,57
-8368670.591,4873652.759,123,1817489W,Bus,18,Westbound,17489,Chew Av & Cliveden St,40.053039,-75.177047,Fall 2023,15,44,9,29,5,24
-8368393.74,4873433.016,124,1817483W,Bus,18,Westbound,17483,Chew Av & Duval St,40.051528,-75.17456,Fall 2023,10,46,9,19,3,16
-8367614.058,4872807.844,125,1816982W,Bus,18,Westbound,16982,Chew Av & Haines St,40.047229,-75.167556,Fall 2023,15,31,4,20,8,15
-8367746.528,4872912.691,126,1816983W,Bus,18,Westbound,16983,Chew Av & High St,40.04795,-75.168746,Fall 2023,4,19,4,14,0,11
-8369013.789,4873930.098,127,1817499W,Bus,18,Westbound,17499,Chew Av & Hortter St,40.054946,-75.18013,Fall 2023,11,50,7,20,6,19
-8368516.859,4873531.761,128,1817485W,Bus,18,Westbound,17485,Chew Av & Johnson St,40.052207,-75.175666,Fall 2023,16,39,7,20,9,12
-8367066.255,4872363.603,129,1816979W,Bus,18,Westbound,16979,Chew Av & Locust Av,40.044174,-75.162635,Fall 2023,25,61,10,46,10,31
-8368934.753,4873866.398,130,1817495W,Bus,18,Westbound,17495,Chew Av & Montana St,40.054508,-75.17942,Fall 2023,7,33,3,19,4,14
-8367431.494,4872659.228,131,1816980W,Bus,18,Westbound,16980,Chew Av & Price St,40.046207,-75.165916,Fall 2023,41,61,20,47,12,29
-8367522.331,4872733.536,132,1816981W,Bus,18,Westbound,16981,Chew Av & Rittenhouse St,40.046718,-75.166732,Fall 2023,12,34,10,13,9,18
-8368064.234,4873167.324,133,1817453W,Bus,18,Westbound,17453,Chew Av & Tulpehocken St,40.049701,-75.1716,Fall 2023,8,31,2,16,2,8
-8368757.198,4873726.056,134,1817491W,Bus,18,Westbound,17491,Chew Av & Upsal St,40.053543,-75.177825,Fall 2023,17,66,7,24,10,14
-8367941.115,4873073.672,135,1816984W,Bus,18,Westbound,16984,Chew Av & Walnut Ln,40.049057,-75.170494,Fall 2023,16,55,12,20,4,26
-8368236.668,4873303.877,136,1817482W,Bus,18,Westbound,17482,Chew Av & Washington Ln,40.05064,-75.173149,Fall 2023,58,182,25,85,28,66
-8368020.04,4877899.361,137,18385W,Bus,18,Westbound,385,Easton Rd & Cheltenham Av - FS,40.082233,-75.171203,Fall 2023,1,51,0,34,0,29
-8358481.518,4877087.981,138,1820851W,Bus,18,Westbound,20851,Fox Chase Loop,40.076656,-75.085517,Fall 2023,130,0,75,0,58,0
-8368498.157,4877546.984,139,1817586W,Bus,18,Westbound,17586,Michener Av & Gowen Av,40.079811,-75.175498,Fall 2023,2,42,1,14,4,11
-8368161.861,4877294.421,140,1817584W,Bus,18,Westbound,17584,Michener Av & Mt Airy Av,40.078075,-75.172477,Fall 2023,6,19,0,7,1,10
-8367933.434,4877117.95,141,1817582W,Bus,18,Westbound,17582,Michener Av & Mt Pleasant Av - FS,40.076862,-75.170425,Fall 2023,5,17,1,5,2,14
-8368708.885,4877698.437,142,1817587W,Bus,18,Westbound,17587,Michener Av & Roumfort Rd,40.080852,-75.177391,Fall 2023,13,44,9,24,4,14
-8368325.835,4877418.664,143,18384W,Bus,18,Westbound,384,Michener Av & Wadsworth Av,40.078929,-75.17395,Fall 2023,9,105,9,50,6,35
-8368091.396,4876858.27,144,1817578W,Bus,18,Westbound,17578,Mt Pleasant Av & Williams Av,40.075077,-75.171844,Fall 2023,12,36,8,18,2,8
-8362910.698,4871149.347,145,1816959W,Bus,18,Westbound,16959,Olney Av & 2nd St,40.035823,-75.125305,Fall 2023,54,19,38,14,25,13
-8363194.34,4871199.362,146,1832312W,Bus,18,Westbound,32312,Olney Av & 3rd St - FS,40.036167,-75.127853,Fall 2023,37,23,18,13,16,9
-8363476.313,4871245.888,147,1816962W,Bus,18,Westbound,16962,Olney Av & 5th St,40.036487,-75.130386,Fall 2023,282,190,195,122,124,77
-8363699.62,4871281.946,148,1816963W,Bus,18,Westbound,16963,Olney Av & 6th St,40.036735,-75.132392,Fall 2023,48,28,18,13,19,9
-8363883.965,4871312.48,149,1816964W,Bus,18,Westbound,16964,Olney Av & 7th St,40.036945,-75.134048,Fall 2023,51,17,26,9,14,10
-8364295.067,4871402.916,150,1816966W,Bus,18,Westbound,16966,Olney Av & 10th St,40.037567,-75.137741,Fall 2023,18,20,16,15,9,12
-8364480.192,4871455.55,151,1815907W,Bus,18,Westbound,15907,Olney Av & 11th St,40.037929,-75.139404,Fall 2023,53,40,28,14,17,14
-8364653.405,4871506.585,152,1815908W,Bus,18,Westbound,15908,Olney Av & 12th St,40.03828,-75.14096,Fall 2023,5,12,7,10,3,6
-8364824.169,4871556.457,153,18381W,Bus,18,Westbound,381,Olney Av & 13th St,40.038623,-75.142494,Fall 2023,110,111,52,58,34,35
-8365271.673,4871627.558,154,1815911W,Bus,18,Westbound,15911,Olney Av & 15th St,40.039112,-75.146514,Fall 2023,101,84,43,32,30,36
-8365489.971,4871620.288,155,1815912W,Bus,18,Westbound,15912,Olney Av & 16th St,40.039062,-75.148475,Fall 2023,23,32,21,14,10,9
-8365907.864,4871651.84,156,1815914W,Bus,18,Westbound,15914,Olney Av & 18th St - FS,40.039279,-75.152229,Fall 2023,21,50,9,7,10,7
-8366343.569,4871817.743,157,1815916W,Bus,18,Westbound,15916,Olney Av & 20st St - MBFS,40.04042,-75.156143,Fall 2023,3,13,3,5,2,7
-8366143.973,4871691.243,158,1815915W,Bus,18,Westbound,15915,Olney Av & 20th St,40.03955,-75.15435,Fall 2023,20,42,7,22,10,12
-8362039.289,4871006.28,159,1816739W,Bus,18,Westbound,16739,Olney Av & B St,40.034839,-75.117477,Fall 2023,73,28,27,8,23,7
-8365033.116,4871618.107,160,1815910W,Bus,18,Westbound,15910,Olney Av & Broad St,40.039047,-75.144371,Fall 2023,963,1008,548,601,415,419
-8366507.431,4871925.924,161,1815917W,Bus,18,Westbound,15917,Olney Av & Chew Av,40.041164,-75.157615,Fall 2023,17,42,9,30,7,13
-8362466.534,4871077.813,162,1815898W,Bus,18,Westbound,15898,Olney Av & Front St,40.035331,-75.121315,Fall 2023,185,86,136,58,89,33
-8362731.474,4871121.722,163,1815899W,Bus,18,Westbound,15899,Olney Av & Mascher St,40.035633,-75.123695,Fall 2023,71,30,36,14,23,8
-8365637.803,4871616.943,164,1815913W,Bus,18,Westbound,15913,Olney Av & Ogontz Av,40.039039,-75.149803,Fall 2023,78,224,18,30,24,18
-8366656.043,4872034.106,165,1815918W,Bus,18,Westbound,15918,Olney Av & Penn Blvd - FS,40.041908,-75.15895,Fall 2023,23,78,13,50,7,44
-8364984.692,4871552.095,166,1832629W,Bus,18,Westbound,32629,Olney Transportation Center - Rt 18,40.038593,-75.143936,Fall 2023,98,0,0,0,0,0
-8358263.332,4875229.057,167,1816429W,Bus,18,Westbound,16429,Oxford Av & Bleigh Av,40.063877,-75.083557,Fall 2023,147,12,37,4,23,2
-8358409.383,4876751.054,168,1816382W,Bus,18,Westbound,16382,Oxford Av & Borbeck Av,40.07434,-75.084869,Fall 2023,39,0,28,0,22,0
-8358371.98,4876423.157,169,1816383W,Bus,18,Westbound,16383,Oxford Av & Hartel Av,40.072086,-75.084533,Fall 2023,27,0,13,0,13,0
-8358351.609,4876277.687,170,1816384W,Bus,18,Westbound,16384,Oxford Av & Hartel Av - MBFS,40.071086,-75.08435,Fall 2023,13,0,1,0,1,0
-8358435.655,4876975.816,171,18476W,Bus,18,Westbound,476,Oxford Av & Loney St - FS,40.075885,-75.085105,Fall 2023,87,3,52,5,46,6
-8358321.886,4875657.863,172,1816427W,Bus,18,Westbound,16427,Oxford Av & Rockwell Av,40.066825,-75.084083,Fall 2023,15,2,2,1,1,0
-8368967.926,4874213.117,173,1817502W,Bus,18,Westbound,17502,Phil Ellena St & Boyer St,40.056892,-75.179718,Fall 2023,14,35,2,16,0,13
-8369107.966,4874031.612,174,1817500W,Bus,18,Westbound,17500,Phil Ellena St & Chew Av - FS,40.055644,-75.180976,Fall 2023,19,83,16,45,9,34
-8368791.262,4874438.404,175,1817505W,Bus,18,Westbound,17505,Phil Ellena St & Sprague St,40.058441,-75.178131,Fall 2023,14,44,9,23,3,22
-8361440.502,4871443.337,176,1816737W,Bus,18,Westbound,16737,Rising Sun & Adams - MBFS,40.037845,-75.112098,Fall 2023,29,8,15,1,19,3
-8361183.131,4871667.979,177,1816736W,Bus,18,Westbound,16736,Rising Sun Av & Adams Av,40.03939,-75.109786,Fall 2023,152,96,109,53,76,37
-8361087.174,4871750.567,178,1816735W,Bus,18,Westbound,16735,Rising Sun Av & Adams Av - MBNS,40.039958,-75.108924,Fall 2023,52,49,47,38,23,15
-8360040.882,4872652.539,179,1816729W,Bus,18,Westbound,16729,Rising Sun Av & Benner St,40.046161,-75.099525,Fall 2023,27,17,13,5,7,4
-8360577.664,4872192.746,180,1816732W,Bus,18,Westbound,16732,Rising Sun Av & Cheltenham Av,40.042999,-75.104347,Fall 2023,115,47,50,23,34,16
-8361658.799,4871110.527,181,1816738W,Bus,18,Westbound,16738,Rising Sun Av & Chew Av,40.035556,-75.114059,Fall 2023,1,4,0,1,2,1
-8360203.074,4872512.796,182,1816730W,Bus,18,Westbound,16730,Rising Sun Av & Comly St,40.0452,-75.100982,Fall 2023,116,66,63,15,41,16
-8358290.494,4874900.484,183,1816430W,Bus,18,Westbound,16430,Rising Sun Av & Cottman Av,40.061618,-75.083801,Fall 2023,433,54,163,19,116,17
-8359874.459,4872803.482,184,1816728W,Bus,18,Westbound,16728,Rising Sun Av & Devereaux Av,40.047199,-75.09803,Fall 2023,74,45,33,20,29,7
-8360842.605,4871959.222,185,1816734W,Bus,18,Westbound,16734,Rising Sun Av & Godfrey Av,40.041393,-75.106727,Fall 2023,75,18,30,2,22,3
-8359447.215,4873380.371,186,1816711W,Bus,18,Westbound,16711,Rising Sun Av & Hellerman St,40.051166,-75.094192,Fall 2023,58,32,33,16,21,8
-8359069.285,4873875.269,187,18378W,Bus,18,Westbound,378,Rising Sun Av & Knorr St,40.054569,-75.090797,Fall 2023,46,13,18,4,17,5
-8359609.407,4873161.798,188,1816726W,Bus,18,Westbound,16726,Rising Sun Av & Levick St,40.049663,-75.095649,Fall 2023,106,38,79,14,49,13
-8358934.255,4874052.264,189,1816434W,Bus,18,Westbound,16434,Rising Sun Av & Longshore Av,40.055786,-75.089584,Fall 2023,102,25,43,19,30,8
-8359326.656,4873540.196,190,1816436W,Bus,18,Westbound,16436,Rising Sun Av & Magee Av,40.052265,-75.093109,Fall 2023,55,22,27,4,18,2
-8361758.208,4870960.337,191,18379W,Bus,18,Westbound,379,Rising Sun Av & Olney Av,40.034523,-75.114952,Fall 2023,90,126,43,69,38,37
-8358663.303,4874413.97,192,1816432W,Bus,18,Westbound,16432,Rising Sun Av & Princeton Av,40.058273,-75.08715,Fall 2023,16,1,2,0,4,2
-8359742.768,4872983.22,193,1816727W,Bus,18,Westbound,16727,Rising Sun Av & Robbins St,40.048435,-75.096847,Fall 2023,51,24,23,3,13,8
-8358528.273,4874590.974,194,1816431W,Bus,18,Westbound,16431,Rising Sun Av & Saint Vincent St,40.05949,-75.085937,Fall 2023,85,9,31,3,17,2
-8360744.978,4872044.575,195,1816733W,Bus,18,Westbound,16733,Rising Sun Av & Sanger St,40.04198,-75.10585,Fall 2023,45,16,19,12,16,4
-8358800.894,4874229.697,196,1816433W,Bus,18,Westbound,16433,Rising Sun Av & Tyson Av,40.057006,-75.088386,Fall 2023,37,8,26,3,15,1
-8359205.986,4873700.46,197,1816435W,Bus,18,Westbound,16435,Rising Sun Av & Unruh Av,40.053367,-75.092025,Fall 2023,73,30,39,10,31,5
-8360391.65,4872348.044,198,1816731W,Bus,18,Westbound,16731,Rising Sun Av & Van Kirk St,40.044067,-75.102676,Fall 2023,134,60,83,25,54,11
-8368416.672,4878097.523,199,1817595W,Bus,18,Westbound,17595,Roumfort Rd & Cheltenham Av,40.083595,-75.174766,Fall 2023,0,12,1,6,2,4
-8368556.823,4877912.164,200,1817593W,Bus,18,Westbound,17593,Roumfort Rd & Pickering Av,40.082321,-75.176025,Fall 2023,7,36,8,14,2,8
-8366227.129,4873782.629,201,1831519W,Bus,18,Westbound,31519,Stenton Av & 21st St,40.053932,-75.155097,Fall 2023,1,4,0,0,0,0
-8367805.194,4874923.901,202,1815577W,Bus,18,Westbound,15577,Stenton Av & Cardeza St,40.061779,-75.169273,Fall 2023,0,4,0,0,0,0
-8365624.222,4873411.929,203,1827748W,Bus,18,Westbound,27748,Stenton Av & Chelten Av,40.051383,-75.149681,Fall 2023,5,7,0,0,0,0
-8368324.054,4875293.93,204,1818466W,Bus,18,Westbound,18466,Stenton Av & Dorset St - FS,40.064323,-75.173934,Fall 2023,4,5,3,3,1,2
-8368225.536,4875222.367,205,1817532W,Bus,18,Westbound,17532,Stenton Av & Phil Ellena St,40.063831,-75.173049,Fall 2023,6,11,3,5,3,6
-8367400.102,4874623.117,206,1819062W,Bus,18,Westbound,19062,Stenton Av & Washington Ln - FS,40.059711,-75.165634,Fall 2023,1,11,0,0,0,0
-8367898.591,4876433.631,207,1817569W,Bus,18,Westbound,17569,Thouron Av & Gorgas Ln,40.072158,-75.170112,Fall 2023,9,46,1,8,3,8
-8368223.087,4876676.716,208,1817574W,Bus,18,Westbound,17574,Thouron Av & Mt Pleasant Av,40.073829,-75.173027,Fall 2023,8,98,5,26,2,10
-8367507.971,4876143.42,209,1817563W,Bus,18,Westbound,17563,Thouron Av & Phil Ellena St,40.070163,-75.166603,Fall 2023,13,67,7,24,2,24
-8368067.574,4876562.955,210,1817572W,Bus,18,Westbound,17572,Thouron Av & Sedgwick St,40.073047,-75.17163,Fall 2023,7,26,2,7,0,2
-8367354.238,4876027.484,211,1817559W,Bus,18,Westbound,17559,Thouron Av & Sharpnack St,40.069366,-75.165222,Fall 2023,8,39,12,23,7,13
-8367763.56,4876332.674,212,1817566W,Bus,18,Westbound,17566,Thouron Av & Vernon Rd,40.071464,-75.168899,Fall 2023,10,41,5,19,5,24
-8367295.573,4875845.508,213,1817556W,Bus,18,Westbound,17556,Upsal St & Gilbert St,40.068115,-75.164695,Fall 2023,15,63,14,33,6,30
-8367678.623,4875408.258,214,1817549W,Bus,18,Westbound,17549,Upsal St & Lowber Av,40.065109,-75.168136,Fall 2023,15,27,9,8,5,9
-8367873.099,4875164.04,215,18383W,Bus,18,Westbound,383,Upsal St & Mansfield St,40.06343,-75.169883,Fall 2023,30,24,7,8,9,5
-8367782.262,4875277.203,216,1817540W,Bus,18,Westbound,17540,Upsal St & Rodney St,40.064208,-75.169067,Fall 2023,7,4,1,6,2,4
-8367957.256,4875058.151,217,1817537W,Bus,18,Westbound,17537,Upsal St & Stenton Av - FS,40.062702,-75.170639,Fall 2023,32,18,14,12,7,9
-8367445.966,4875700.629,218,1817553W,Bus,18,Westbound,17553,Upsal St & Woolston Av,40.067119,-75.166046,Fall 2023,9,34,6,13,2,7
-8368698.644,4874973.208,219,1817520W,Bus,18,Westbound,17520,Vernon Rd & Anderson St,40.062118,-75.177299,Fall 2023,4,13,2,2,2,4
-8368718.125,4874818.451,220,1817519W,Bus,18,Westbound,17519,Vernon Rd & Ardleigh St - FS,40.061054,-75.177474,Fall 2023,7,8,3,10,2,3
-8368767.439,4874652.497,221,1817518W,Bus,18,Westbound,17518,Vernon Rd & Blakemore St - FS,40.059913,-75.177917,Fall 2023,14,21,13,8,4,12
-8368582.315,4875208.985,222,1817523W,Bus,18,Westbound,17523,Vernon Rd & Crittenden St,40.063739,-75.176254,Fall 2023,1,12,3,11,5,4
-8368482.907,4875409.858,223,1817525W,Bus,18,Westbound,17525,Vernon Rd & Stenton Av,40.06512,-75.175361,Fall 2023,28,68,12,37,8,24
-8349936.746,4874393.463,224,1923844N,Bus,19,Northbound,23844,Academy Rd & Holme Av - FS,40.058132,-75.008758,Fall 2023,2,4,0,1,0,0
-8349974.149,4874632.571,225,1923845N,Bus,19,Northbound,23845,Academy Rd & Outlook Av,40.059776,-75.009094,Fall 2023,0,1,0,0,0,0
-8358722.748,4871984.086,226,1922848N,Bus,19,Northbound,22848,Algon Av & Devereaux Av - FS,40.041564,-75.087684,Fall 2023,4,4,1,2,0,0
-8355399.416,4876304.889,227,1923823N,Bus,19,Northbound,23823,Algon Av & Fox Chase Rd,40.071273,-75.05783,Fall 2023,3,5,0,0,0,0
-8356405.855,4874958.227,228,1923816N,Bus,19,Northbound,23816,Algon Av & Hartel Av,40.062015,-75.066871,Fall 2023,1,3,2,1,0,0
-8358287.934,4872451.141,229,1915740N,Bus,19,Northbound,15740,Algon Av & Hellerman St,40.044776,-75.083778,Fall 2023,9,2,1,3,0,0
-8355609.253,4876037.957,230,1923821N,Bus,19,Northbound,23821,Algon Av & Hoffnagle St,40.069438,-75.059715,Fall 2023,2,2,0,0,0,0
-8355227.872,4876520.186,231,1923824N,Bus,19,Northbound,23824,Algon Av & Krewstown Rd,40.072753,-75.056289,Fall 2023,1,3,0,0,0,0
-8356285.296,4875125.786,232,1923817N,Bus,19,Northbound,23817,Algon Av & Langdon St,40.063167,-75.065788,Fall 2023,3,0,0,0,0,0
-8358435.655,4872279.846,233,1922850N,Bus,19,Northbound,22850,Algon Av & Levick St,40.043598,-75.085105,Fall 2023,13,19,5,6,0,0
-8356142.585,4875321.13,234,1923818N,Bus,19,Northbound,23818,Algon Av & Loney St,40.06451,-75.064506,Fall 2023,0,0,0,1,0,0
-8355981.171,4875548.624,235,19391N,Bus,19,Northbound,391,Algon Av & Rhawn St,40.066074,-75.063056,Fall 2023,2,4,1,0,0,0
-8358597.068,4872106.664,236,1922849N,Bus,19,Northbound,22849,Algon Av & Robbins Av,40.042407,-75.086555,Fall 2023,1,2,0,3,0,0
-8355764.655,4875840.417,237,1923820N,Bus,19,Northbound,23820,Algon Av & Solly Av,40.06808,-75.061111,Fall 2023,1,0,1,2,0,0
-8355884.435,4875680.701,238,1923819N,Bus,19,Northbound,23819,Algon Av & Stanwood St,40.066982,-75.062187,Fall 2023,6,4,0,2,0,0
-8355477.562,4876205.098,239,1923822N,Bus,19,Northbound,23822,Algon Av & Strahle St,40.070587,-75.058532,Fall 2023,2,1,0,0,0,0
-8350460.726,4876387.08,240,1923399N,Bus,19,Northbound,23399,Ashton Rd & Grant Av - FS,40.071838,-75.013465,Fall 2023,3,8,0,5,0,0
-8350628.93,4876157.821,241,1923400N,Bus,19,Northbound,23400,Ashton Rd & Grant Av - MBFS,40.070262,-75.014976,Fall 2023,3,9,2,2,0,0
-8350827.635,4875900.93,242,1923401N,Bus,19,Northbound,23401,Ashton Rd & Norcross Ln,40.068496,-75.016761,Fall 2023,5,11,0,2,0,0
-8351252.319,4875336.694,243,1923404N,Bus,19,Northbound,23404,Ashton Rd & Ryerson Rd,40.064617,-75.020576,Fall 2023,2,4,0,1,0,0
-8351048.493,4875609.135,244,1923402N,Bus,19,Northbound,23402,Ashton Rd & Woodbridge Rd,40.06649,-75.018745,Fall 2023,6,7,0,2,0,0
-8357945.626,4870238.788,245,1922839N,Bus,19,Northbound,22839,Cheltenham Av & Horrocks St,40.02956,-75.080703,Fall 2023,0,4,0,4,0,0
-8358145.222,4870387.368,246,1922840N,Bus,19,Northbound,22840,Cheltenham Av & Large St,40.030582,-75.082496,Fall 2023,0,6,0,0,0,0
-8357748.591,4870091.229,247,1922838N,Bus,19,Northbound,22838,Cheltenham Av & Oakland St,40.028545,-75.078933,Fall 2023,0,6,2,0,0,0
-8357492.111,4869924.336,248,1931105N,Bus,19,Northbound,31105,Cheltenham Av & Penn St,40.027397,-75.076629,Fall 2023,2,0,5,0,0,0
-8358299.845,4870502.221,249,1922841N,Bus,19,Northbound,22841,Cheltenham Av & Roosevelt Blvd,40.031372,-75.083885,Fall 2023,8,2,3,2,0,0
-8357621.241,4869997.46,250,1922837N,Bus,19,Northbound,22837,Cheltenham Av & Saul St,40.0279,-75.077789,Fall 2023,1,0,0,0,0,0
-8356948.538,4875291.748,251,1930040N,Bus,19,Northbound,30040,Dungan Rd & Lorna Dr,40.064308,-75.071746,Fall 2023,0,1,0,0,0,0
-8356721.78,4875586.879,252,1930041N,Bus,19,Northbound,30041,Dungan Rd & Lorna Dr - MBFS,40.066337,-75.069709,Fall 2023,1,1,0,1,0,0
-8356460.179,4875924.786,253,1930042N,Bus,19,Northbound,30042,Dungan Rd & Rhawn St,40.06866,-75.067359,Fall 2023,2,6,1,3,0,0
-8348852.16,4875310.512,254,191235N,Bus,19,Northbound,1235,Fordham Rd & Grant Av,40.064437,-74.999015,Fall 2023,0,3,0,0,0,0
-8357619.572,4869429.054,255,1921967N,Bus,19,Northbound,21967,Frankford Transportation Center - Rt 19,40.02399,-75.077774,Fall 2023,173,0,58,0,0,0
-8351840.086,4877447.616,256,1923836N,Bus,19,Northbound,23836,Grant Av & Blue Grass Rd - 1,40.079128,-75.025856,Fall 2023,13,13,8,7,0,0
-8351657.411,4877313.333,257,19394N,Bus,19,Northbound,394,Grant Av & Blue Grass Rd - 2,40.078205,-75.024215,Fall 2023,1,4,0,0,0,0
-8350857.358,4876737.233,258,1923837N,Bus,19,Northbound,23837,Grant Av & Blue Grass Rd - 3 MBFS,40.074245,-75.017028,Fall 2023,3,14,1,0,0,0
-8353155.549,4878381.098,259,1923829N,Bus,19,Northbound,23829,Grant Av & Bustleton Av,40.085544,-75.037673,Fall 2023,15,8,1,1,0,0
-8352551.752,4877964.25,260,1923832N,Bus,19,Northbound,23832,Grant Av & Clark St,40.082679,-75.032249,Fall 2023,3,3,1,1,0,0
-8352917.77,4878211.884,261,1923830N,Bus,19,Northbound,23830,Grant Av & Dungan Rd,40.084381,-75.035537,Fall 2023,2,3,1,0,0,0
-8347303.928,4874024.485,262,1922688N,Bus,19,Northbound,22688,Grant Av & Eden Hall Ln,40.055595,-74.985107,Fall 2023,3,2,0,0,0,0
-8352364.846,4877834.907,263,1923833N,Bus,19,Northbound,23833,Grant Av & Evans St,40.08179,-75.03057,Fall 2023,2,3,0,0,0,0
-8347877.224,4874689.731,264,1919084N,Bus,19,Northbound,19084,Grant Av & Frankford Av - FS,40.060169,-74.990257,Fall 2023,0,23,0,3,0,0
-8352735.206,4878087.484,265,1923831N,Bus,19,Northbound,23831,Grant Av & Hoff St,40.083526,-75.033897,Fall 2023,2,4,0,0,0,0
-8347172.237,4873839.784,266,191102N,Bus,19,Northbound,1102,Grant Av & James St - Torresdale Station,40.054325,-74.983924,Fall 2023,0,18,0,6,0,0
-8348362.131,4874949.936,267,1923852N,Bus,19,Northbound,23852,Grant Av & Leon St,40.061958,-74.994613,Fall 2023,0,0,0,0,0,0
-8352208.665,4877717.351,268,1923834N,Bus,19,Northbound,23834,Grant Av & Roosevelt Blvd,40.080982,-75.029167,Fall 2023,13,6,2,4,0,0
-8352099.015,4877635.731,269,1923835N,Bus,19,Northbound,23835,Grant Av & Roosevelt Blvd - FS,40.080421,-75.028182,Fall 2023,3,20,2,9,0,0
-8347640.225,4874415.57,270,1922687N,Bus,19,Northbound,22687,Grant Av & Torresdale Av,40.058284,-74.988128,Fall 2023,1,5,0,0,0,0
-8353464.794,4878571.996,271,1931106N,Bus,19,Northbound,31106,Grant Av & Welsh Rd - FS,40.086856,-75.040451,Fall 2023,2,9,3,1,0,0
-8354105.104,4878490.515,272,1927959N,Bus,19,Northbound,27959,Gregg St & Krewstown Rd,40.086296,-75.046203,Fall 2023,0,0,0,1,0,0
-8350236.529,4874167.595,273,1925905N,Bus,19,Northbound,25905,Holme Av & Willits Rd - MBFS,40.056579,-75.011451,Fall 2023,1,1,1,3,0,0
-8354490.715,4877929.332,274,1923826N,Bus,19,Northbound,23826,Krewstown Rd & Bloomfield Av,40.082439,-75.049667,Fall 2023,9,16,3,4,0,0
-8353877.456,4878768.572,275,1923828N,Bus,19,Northbound,23828,Krewstown Rd & Grant Av,40.088207,-75.044158,Fall 2023,6,11,3,6,0,0
-8354092.414,4878478.729,276,19392N,Bus,19,Northbound,392,Krewstown Rd & Gregg St,40.086215,-75.046089,Fall 2023,3,10,0,3,0,0
-8354785.377,4877542.473,277,1923825N,Bus,19,Northbound,23825,Krewstown Rd & Rising Sun Av,40.07978,-75.052314,Fall 2023,0,3,0,0,0,0
-8354242.695,4878268.482,278,1923827N,Bus,19,Northbound,23827,Krewstown Rd & Surrey Rd - FS,40.08477,-75.047439,Fall 2023,3,4,1,2,0,0
-8358148.673,4872651.958,279,1922851N,Bus,19,Northbound,22851,Magee Av & Algon Av - FS,40.046157,-75.082527,Fall 2023,6,7,2,2,0,0
-8358309.975,4872769.018,280,1922852N,Bus,19,Northbound,22852,Magee Av & Pennway St,40.046962,-75.083976,Fall 2023,1,1,0,0,0,0
-8358487.53,4872899.458,281,1922853N,Bus,19,Northbound,22853,Magee Av & Whitaker Av,40.047859,-75.085571,Fall 2023,4,4,6,3,0,0
-8356591.87,4874812.924,282,1923815N,Bus,19,Northbound,23815,Napfle Av & Algon Av - MBNS,40.061016,-75.068542,Fall 2023,2,1,0,0,0,0
-8357088.689,4875060.915,283,1930039N,Bus,19,Northbound,30039,Napfle Av & Dungan Rd,40.062721,-75.073005,Fall 2023,1,4,0,1,0,0
-8356736.251,4874923.319,284,1923814N,Bus,19,Northbound,23814,Napfle Av & Pennway St - FS,40.061775,-75.069839,Fall 2023,0,0,0,1,0,0
-8349507.052,4875064.26,285,1923848N,Bus,19,Northbound,23848,Outlook Av & Aubrey Av,40.062744,-75.004898,Fall 2023,0,1,0,0,0,0
-8349684.496,4874882.739,286,1923847N,Bus,19,Northbound,23847,Outlook Av & Convent Av,40.061496,-75.006492,Fall 2023,2,0,0,0,0,0
-8349332.058,4875240.112,287,1923849N,Bus,19,Northbound,23849,Outlook Av & Holyoke Rd - FS,40.063953,-75.003326,Fall 2023,1,3,0,1,0,0
-8349862.05,4874698.021,288,1923846N,Bus,19,Northbound,23846,Outlook Av & Lansford St,40.060226,-75.008087,Fall 2023,0,0,0,2,0,0
-8349183.447,4875413.203,289,1923850N,Bus,19,Northbound,23850,Outlook Av & Primrose Rd,40.065143,-75.001991,Fall 2023,0,1,1,1,0,0
-8358811.135,4871639.19,290,1922846N,Bus,19,Northbound,22846,Oxford Av & Benner St - FS,40.039192,-75.088478,Fall 2023,1,5,1,1,0,0
-8358653.173,4871002.936,291,1922843N,Bus,19,Northbound,22843,Oxford Av & Frontenac St,40.034816,-75.087059,Fall 2023,8,17,0,3,0,0
-8358823.826,4871457.731,292,1922845N,Bus,19,Northbound,22845,Oxford Av & Langdon St,40.037944,-75.088592,Fall 2023,12,10,1,4,0,0
-8358451.796,4870816.692,293,1922844N,Bus,19,Northbound,22844,Oxford Av & Loretto Av,40.033535,-75.08525,Fall 2023,6,9,2,4,0,0
-8358400.033,4870697.91,294,1922842N,Bus,19,Northbound,22842,Oxford Av & Roosevelt Blvd - FS,40.032718,-75.084785,Fall 2023,6,8,3,2,0,0
-8358757.591,4871261.446,295,19389N,Bus,19,Northbound,389,Oxford Av & Summerdale Av - FS,40.036594,-75.087997,Fall 2023,5,6,5,3,0,0
-8348930.306,4875229.057,296,1923851N,Bus,19,Northbound,23851,Primrose Rd & Fordham Rd,40.063877,-74.999717,Fall 2023,0,0,0,0,0,0
-8356151.045,4875685.646,297,1923480N,Bus,19,Northbound,23480,Rhawn St & Dorcas St - MBNS,40.067016,-75.064582,Fall 2023,0,2,0,0,0,0
-8356280.175,4875784.996,298,1923479N,Bus,19,Northbound,23479,Rhawn St & Meadowbrook Dr - FS,40.067699,-75.065742,Fall 2023,0,1,1,0,0,0
-8357321.458,4874523.197,299,1923810N,Bus,19,Northbound,23810,Whitaker Av & Bleigh Av,40.059024,-75.075096,Fall 2023,4,0,0,0,0,0
-8357476.86,4874302.999,300,1930288N,Bus,19,Northbound,30288,Whitaker Av & Cottman Av - FS,40.05751,-75.076492,Fall 2023,38,19,8,9,0,0
-8357060.636,4874886.666,301,1923812N,Bus,19,Northbound,23812,Whitaker Av & Faunce St,40.061523,-75.072753,Fall 2023,0,4,0,0,0,0
-8358239.51,4873251.67,302,1922855N,Bus,19,Northbound,22855,Whitaker Av & Knorr St,40.050281,-75.083343,Fall 2023,5,7,2,0,0,0
-8358104.479,4873431.998,303,1922856N,Bus,19,Northbound,22856,Whitaker Av & Longshore Av,40.051521,-75.08213,Fall 2023,5,5,0,1,0,0
-8356995.292,4874983.826,304,1923813N,Bus,19,Northbound,23813,Whitaker Av & Napfle Av,40.062191,-75.072166,Fall 2023,0,7,1,0,0,0
-8357843.769,4873799.208,305,1922858N,Bus,19,Northbound,22858,Whitaker Av & Princeton Av,40.054046,-75.079788,Fall 2023,5,3,1,1,0,0
-8357689.146,4874012.85,306,1922859N,Bus,19,Northbound,22859,Whitaker Av & Saint Vincent St - FS,40.055515,-75.078399,Fall 2023,2,3,0,1,0,0
-8357191.437,4874704.712,307,1923811N,Bus,19,Northbound,23811,Whitaker Av & Shelmire Av,40.060272,-75.073928,Fall 2023,2,1,1,1,0,0
-8357959.207,4873638.943,308,1922857N,Bus,19,Northbound,22857,Whitaker Av & Tyson Av - FS,40.052944,-75.080825,Fall 2023,3,1,1,2,0,0
-8358369.42,4873071.927,309,1922854N,Bus,19,Northbound,22854,Whitaker Av & Unruh Av,40.049045,-75.08451,Fall 2023,1,2,0,2,0,0
-8351398.371,4875067.024,310,1923839N,Bus,19,Northbound,23839,Willits Rd & Ashton Rd - MBFS,40.062763,-75.021888,Fall 2023,4,9,0,2,0,0
-8351019.662,4874655.26,311,1923840N,Bus,19,Northbound,23840,Willits Rd & Convent Av,40.059932,-75.018486,Fall 2023,2,9,0,2,0,0
-8350459.947,4874188.102,312,1923842N,Bus,19,Northbound,23842,Willits Rd & Holme Av,40.05672,-75.013458,Fall 2023,0,14,0,1,0,0
-8349945.206,4874359.575,313,1923886S,Bus,19,Southbound,23886,Academy Rd & Holme Av,40.057899,-75.008834,Fall 2023,1,1,0,0,0,0
-8356314.128,4875107.459,314,1930046S,Bus,19,Southbound,30046,Algon Av & Borbeck Av - FS,40.063041,-75.066047,Fall 2023,3,0,1,0,0,0
-8355508.175,4876188.369,315,1923868S,Bus,19,Southbound,23868,Algon Av & Dorcas St,40.070472,-75.058807,Fall 2023,0,1,0,0,0,0
-8355401.197,4876324.382,316,1923867S,Bus,19,Southbound,23867,Algon Av & Fox Chase Rd,40.071407,-75.057846,Fall 2023,8,3,0,0,0,0
-8356174.867,4875301.639,317,1923872S,Bus,19,Southbound,23872,Algon Av & Griffith St,40.064376,-75.064796,Fall 2023,0,0,0,1,0,0
-8356406.746,4874978.153,318,1923874S,Bus,19,Southbound,23874,Algon Av & Hartel Av,40.062152,-75.066879,Fall 2023,3,0,3,0,0,0
-8355635.524,4876030.829,319,1923869S,Bus,19,Southbound,23869,Algon Av & Hoffnagle St - FS,40.069389,-75.059951,Fall 2023,2,0,0,1,0,0
-8355218.521,4876557.427,320,1923866S,Bus,19,Southbound,23866,Algon Av & Krewstown Rd - FS,40.073009,-75.056205,Fall 2023,3,4,0,0,0,0
-8356528.975,4874812.342,321,1923875S,Bus,19,Southbound,23875,Algon Av & Napfle Av,40.061012,-75.067977,Fall 2023,1,1,0,0,0,0
-8355979.502,4875577.425,322,19402S,Bus,19,Southbound,402,Algon Av & Rhawn St,40.066272,-75.063041,Fall 2023,5,6,1,4,0,0
-8355766.325,4875859.327,323,1923870S,Bus,19,Southbound,23870,Algon Av & Solly Av,40.06821,-75.061126,Fall 2023,2,2,0,0,0,0
-8355901.355,4875678.519,324,1923871S,Bus,19,Southbound,23871,Algon Av & Stanwood St - FS,40.066967,-75.062339,Fall 2023,3,5,0,0,0,0
-8350435.234,4876389.844,325,1923353S,Bus,19,Southbound,23353,Ashton Rd & Grant Av,40.071857,-75.013236,Fall 2023,10,2,5,0,0,0
-8350807.264,4875905.439,326,1923351S,Bus,19,Southbound,23351,Ashton Rd & Norcross Ln - FS,40.068527,-75.016578,Fall 2023,18,3,1,0,0,0
-8351253.989,4875313.275,327,1923348S,Bus,19,Southbound,23348,Ashton Rd & Ryerson Rd,40.064456,-75.020591,Fall 2023,3,1,1,0,0,0
-8350613.679,4876156.803,328,1923352S,Bus,19,Southbound,23352,Ashton Rd & Saxton Rd - MBFS,40.070255,-75.014839,Fall 2023,5,1,1,1,0,0
-8351047.603,4875590.225,329,1923350S,Bus,19,Southbound,23350,Ashton Rd & Woodbridge Rd,40.06636,-75.018737,Fall 2023,10,3,4,0,0,0
-8357391.923,4869876.071,330,1932101S,Bus,19,Southbound,32101,Cheltenham Av & Bustleton Av,40.027065,-75.075729,Fall 2023,1,5,0,0,0,0
-8357971.119,4870242.568,331,1923012S,Bus,19,Southbound,23012,Cheltenham Av & Horrocks St,40.029586,-75.080932,Fall 2023,6,3,2,1,0,0
-8358170.714,4870390.13,332,1923011S,Bus,19,Southbound,23011,Cheltenham Av & Large St,40.030601,-75.082725,Fall 2023,3,6,2,0,0,0
-8357774.974,4870095.154,333,1923013S,Bus,19,Southbound,23013,Cheltenham Av & Oakland St,40.028572,-75.07917,Fall 2023,4,2,1,1,0,0
-8357522.724,4869920.411,334,1931108S,Bus,19,Southbound,31108,Cheltenham Av & Penn St,40.02737,-75.076904,Fall 2023,1,1,0,0,0,0
-8358309.975,4870486.665,335,1923008S,Bus,19,Southbound,23008,Cheltenham Av & Roosevelt Bvld - FS,40.031265,-75.083976,Fall 2023,2,3,1,1,0,0
-8357640.722,4869996.443,336,1923014S,Bus,19,Southbound,23014,Cheltenham Av & Saul St,40.027893,-75.077964,Fall 2023,2,3,0,0,0,0
-8356783.006,4875528.696,337,1927964S,Bus,19,Southbound,27964,Dungan Rd & Lorna Dr,40.065937,-75.070259,Fall 2023,4,1,1,0,0,0
-8356949.428,4875311.094,338,1930043S,Bus,19,Southbound,30043,Dungan Rd & Lorna Dr - FS,40.064441,-75.071754,Fall 2023,3,2,1,0,0,0
-8357122.641,4875084.769,339,1930044S,Bus,19,Southbound,30044,Dungan Rd & Napfle Av,40.062885,-75.07331,Fall 2023,2,1,0,0,0,0
-8356490.792,4875906.457,340,1927963S,Bus,19,Southbound,27963,Dungan Rd & Rhawn St - FS,40.068534,-75.067634,Fall 2023,5,2,1,1,0,0
-8348890.454,4875284.475,341,191229S,Bus,19,Southbound,1229,Fordham Rd & Grant Av - FS,40.064258,-74.999359,Fall 2023,5,1,1,0,0,0
-8357586.398,4869328.168,342,1921204S,Bus,19,Southbound,21204,Frankford Transportation Center - Main Dropoff,40.023296,-75.077476,Fall 2023,0,199,0,52,0,0
-8350849.788,4876767.783,343,1923857S,Bus,19,Southbound,23857,Grant Av & Ashton Rd - MBFS,40.074455,-75.01696,Fall 2023,8,2,2,0,0,0
-8351581.825,4877299.949,344,19399S,Bus,19,Southbound,399,Grant Av & Blue Grass Rd - 1,40.078113,-75.023536,Fall 2023,3,2,1,4,0,0
-8351749.138,4877423.756,345,1927961S,Bus,19,Southbound,27961,Grant Av & Blue Grass Rd - 2,40.078964,-75.025039,Fall 2023,8,14,4,6,0,0
-8351070.535,4876932.609,346,1927960S,Bus,19,Southbound,27960,Grant Av & Blue Grass Rd - MBNS,40.075588,-75.018943,Fall 2023,2,0,0,0,0,0
-8353033.32,4878327.264,347,1923863S,Bus,19,Southbound,23863,Grant Av & Bustleton Av - MBNS,40.085174,-75.036575,Fall 2023,9,26,1,2,0,0
-8352522.029,4877980.982,348,1923860S,Bus,19,Southbound,23860,Grant Av & Clark St,40.082794,-75.031982,Fall 2023,3,0,1,0,0,0
-8352887.269,4878228.47,349,1923862S,Bus,19,Southbound,23862,Grant Av & Dungan Rd,40.084495,-75.035263,Fall 2023,1,2,0,0,0,0
-8347951.14,4874801.143,350,1931107S,Bus,19,Southbound,31107,Grant Av & Frankford Av - FS,40.060935,-74.990921,Fall 2023,11,1,3,0,0,0
-8352705.484,4878105.235,351,1923861S,Bus,19,Southbound,23861,Grant Av & Hoff St,40.083648,-75.03363,Fall 2023,4,1,0,1,0,0
-8347159.547,4873850.255,352,191093S,Bus,19,Southbound,1093,Grant Av & James St - FS,40.054397,-74.98381,Fall 2023,7,0,1,0,0,0
-8347172.237,4873839.784,353,191102S,Bus,19,Southbound,1102,Grant Av & James St - Torresdale Station,40.054325,-74.983924,Fall 2023,22,0,6,0,0,0
-8348339.2,4874966.517,354,1923854S,Bus,19,Southbound,23854,Grant Av & Leon St,40.062072,-74.994407,Fall 2023,1,0,0,0,0,0
-8352212.005,4877766.09,355,1923859S,Bus,19,Southbound,23859,Grant Av & Roosevelt Blvd - FS,40.081317,-75.029197,Fall 2023,18,12,5,1,0,0
-8351971.666,4877589.612,356,1923858S,Bus,19,Southbound,23858,Grant Av & Roosevelt Blvd - MBNS,40.080104,-75.027038,Fall 2023,4,6,2,4,0,0
-8347079.731,4873721.547,357,1922561S,Bus,19,Southbound,22561,Grant Av & State Rd - FS,40.053512,-74.983093,Fall 2023,2,0,1,0,0,0
-8347596.921,4874388.372,358,1922562S,Bus,19,Southbound,22562,Grant Av & Torresdale Av,40.058097,-74.987739,Fall 2023,21,1,2,0,0,0
-8353463.013,4878601.969,359,19400S,Bus,19,Southbound,400,Grant Av & Welsh Rd,40.087062,-75.040435,Fall 2023,11,3,2,4,0,0
-8350204.246,4874213.117,360,1923887S,Bus,19,Southbound,23887,Holme Av & Dean Plz,40.056892,-75.011161,Fall 2023,4,0,0,0,0,0
-8350421.653,4874180.975,361,1923888S,Bus,19,Southbound,23888,Holme Av & Willits Rd,40.056671,-75.013114,Fall 2023,5,2,1,1,0,0
-8354491.494,4877949.265,362,1923865S,Bus,19,Southbound,23865,Krewstown Rd & Bloomfield Av,40.082576,-75.049674,Fall 2023,18,8,7,1,0,0
-8353893.597,4878778.03,363,1923864S,Bus,19,Southbound,23864,Krewstown Rd & Grant Av - FS,40.088272,-75.044303,Fall 2023,6,5,5,1,0,0
-8354094.083,4878498.226,364,19401S,Bus,19,Southbound,401,Krewstown Rd & Gregg St,40.086349,-75.046104,Fall 2023,11,3,0,0,0,0
-8354786.268,4877561.969,365,191492S,Bus,19,Southbound,1492,Krewstown Rd & Rising Sun Av,40.079914,-75.052322,Fall 2023,0,0,1,0,0,0
-8354257.946,4878270.665,366,1927962S,Bus,19,Southbound,27962,Krewstown Rd & Surrey Rd,40.084785,-75.047576,Fall 2023,5,4,1,0,0,0
-8358872.25,4872323.033,367,19478S,Bus,19,Southbound,478,Martins Mill Rd & Oxford Av - FS,40.043895,-75.089027,Fall 2023,24,8,4,1,0,0
-8356738.812,4874941.646,368,1923876S,Bus,19,Southbound,23876,Napfle Av & Pennway St,40.061901,-75.069862,Fall 2023,0,0,0,0,0,0
-8356968.909,4875021.498,369,1923877S,Bus,19,Southbound,23877,Napfle Av & Whitaker Av,40.06245,-75.071929,Fall 2023,0,3,0,0,0,0
-8357016.554,4875011.462,370,1927965S,Bus,19,Southbound,27965,Napfle Av & Whitaker Av,40.062381,-75.072357,Fall 2023,0,0,0,0,0,0
-8349971.589,4874649.152,371,1923885S,Bus,19,Southbound,23885,Outlook Av & Academy Rd,40.05989,-75.009071,Fall 2023,0,1,0,0,0,0
-8349505.271,4875086.369,372,1923883S,Bus,19,Southbound,23883,Outlook Av & Aubrey Av,40.062896,-75.004882,Fall 2023,2,1,0,0,0,0
-8349682.826,4874904.993,373,1923884S,Bus,19,Southbound,23884,Outlook Av & Convent Av,40.061649,-75.006477,Fall 2023,2,0,0,0,0,0
-8349330.388,4875261.785,374,1923882S,Bus,19,Southbound,23882,Outlook Av & Holyoke Rd,40.064102,-75.003311,Fall 2023,5,1,1,0,0,0
-8358790.653,4871935.375,375,1922995S,Bus,19,Southbound,22995,Oxford Av & Algon Av,40.041229,-75.088294,Fall 2023,6,6,5,0,0,0
-8358825.496,4871650.822,376,1922997S,Bus,19,Southbound,22997,Oxford Av & Benner St,40.039272,-75.088607,Fall 2023,10,1,2,0,0,0
-8358673.545,4871006.862,377,1923002S,Bus,19,Southbound,23002,Oxford Av & Frontenac St,40.034843,-75.087242,Fall 2023,14,4,2,1,0,0
-8358720.187,4872794.03,378,1922992S,Bus,19,Southbound,22992,Oxford Av & Hellerman St,40.047134,-75.087661,Fall 2023,0,1,1,0,0,0
-8358825.496,4871412.222,379,1923000S,Bus,19,Southbound,23000,Oxford Av & Langdon St - FS,40.037631,-75.088607,Fall 2023,11,16,2,1,0,0
-8358795.773,4872570.962,380,1922993S,Bus,19,Southbound,22993,Oxford Av & Levick St,40.0456,-75.08834,Fall 2023,11,23,3,4,0,0
-8358476.509,4870820.472,381,1923006S,Bus,19,Southbound,23006,Oxford Av & Loretto Av,40.033561,-75.085472,Fall 2023,10,10,1,4,0,0
-8358660.743,4872979.294,382,1922991S,Bus,19,Southbound,22991,Oxford Av & Magee Av - FS,40.048408,-75.087127,Fall 2023,8,2,4,0,0,0
-8358410.274,4870651.386,383,1923007S,Bus,19,Southbound,23007,Oxford Av & Roosevelt Blvd,40.032398,-75.084877,Fall 2023,6,6,4,1,0,0
-8358755.921,4871199.362,384,19404S,Bus,19,Southbound,404,Oxford Av & Summerdale Av,40.036167,-75.087982,Fall 2023,25,1,2,2,0,0
-8349169.866,4875426.003,385,1931441S,Bus,19,Southbound,31441,Primrose Rd & Outlook Av,40.065231,-75.001869,Fall 2023,0,2,0,0,0,0
-8356131.564,4875686.81,386,1925996S,Bus,19,Southbound,25996,Rhawn St & Dorcas St - MBFS,40.067024,-75.064407,Fall 2023,0,0,0,0,0,0
-8356317.579,4875836.635,387,1923524S,Bus,19,Southbound,23524,Rhawn St & Meadowbrook Dr - FS,40.068054,-75.066078,Fall 2023,3,0,0,0,0,0
-8357322.237,4874542.686,388,1923880S,Bus,19,Southbound,23880,Whitaker Av & Bleigh Av,40.059158,-75.075103,Fall 2023,0,0,1,0,0,0
-8357535.414,4874251.368,389,19403S,Bus,19,Southbound,403,Whitaker Av & Cottman Av - FS,40.057155,-75.077018,Fall 2023,21,34,3,8,0,0
-8357061.527,4874906.592,390,1923878S,Bus,19,Southbound,23878,Whitaker Av & Faunce St,40.06166,-75.072761,Fall 2023,6,1,0,0,0,0
-8358240.4,4873271.157,391,1922988S,Bus,19,Southbound,22988,Whitaker Av & Knorr St,40.050415,-75.083351,Fall 2023,2,4,0,1,0,0
-8358108.709,4873454.103,392,1922987S,Bus,19,Southbound,22987,Whitaker Av & Longshore Av,40.051673,-75.082168,Fall 2023,6,3,0,1,0,0
-8358498.55,4872915.454,393,1922990S,Bus,19,Southbound,22990,Whitaker Av & Magee Av,40.047969,-75.08567,Fall 2023,5,6,0,0,0,0
-8357845.439,4873819.132,394,1922985S,Bus,19,Southbound,22985,Whitaker Av & Princeton Av,40.054183,-75.079803,Fall 2023,3,5,1,1,0,0
-8357716.308,4873997.289,395,1922984S,Bus,19,Southbound,22984,Whitaker Av & Saint Vincent St,40.055408,-75.078643,Fall 2023,5,0,0,0,0,0
-8357192.327,4874724.056,396,1923879S,Bus,19,Southbound,23879,Whitaker Av & Shelmire Av,40.060405,-75.073936,Fall 2023,0,2,0,1,0,0
-8358005.071,4873597.786,397,1922986S,Bus,19,Southbound,22986,Whitaker Av & Tyson Av - FS,40.052661,-75.081237,Fall 2023,4,2,2,0,0,0
-8358370.31,4873091.413,398,1922989S,Bus,19,Southbound,22989,Whitaker Av & Unruh St,40.049179,-75.084518,Fall 2023,4,1,0,1,0,0
-8351395.81,4875098.005,399,19398S,Bus,19,Southbound,398,Willits Rd & Ashton Rd,40.062976,-75.021865,Fall 2023,8,4,2,0,0,0
-8350993.279,4874652.497,400,1923856S,Bus,19,Southbound,23856,Willits Rd & Convent Av,40.059913,-75.018249,Fall 2023,5,5,2,0,0,0
-8350561.805,4874290.782,401,1923889S,Bus,19,Southbound,23889,Willits Rd & Exeter Rd,40.057426,-75.014373,Fall 2023,4,1,1,0,0,0
-8348042.756,4878026.958,402,2022941N,Bus,20,Northbound,22941,Academy Rd & Amity Rd,40.08311,-74.991744,Fall 2023,0,3,1,3,0,5
-8349060.327,4876949.776,403,2023357N,Bus,20,Northbound,23357,Academy Rd & Avalon St,40.075706,-75.000885,Fall 2023,0,6,0,2,0,2
-8348924.406,4877171.197,404,2023358N,Bus,20,Northbound,23358,Academy Rd & Avalon St - MBFS,40.077228,-74.999664,Fall 2023,1,8,1,3,0,2
-8346390.886,4879878.113,405,2023366N,Bus,20,Northbound,23366,Academy Rd & Byberry Rd,40.095832,-74.976905,Fall 2023,8,68,6,30,10,27
-8347872.994,4878149.611,406,20408N,Bus,20,Northbound,408,Academy Rd & Chalfont Dr,40.083953,-74.990219,Fall 2023,1,8,1,6,1,6
-8347168.898,4879043.29,407,2023727N,Bus,20,Northbound,23727,Academy Rd & Comly Rd - FS,40.090095,-74.983894,Fall 2023,16,35,4,13,1,17
-8358169.045,4868511.386,408,323966E,Bus,3,Eastbound,23966,Frankford Av & Foulkrod St,40.017677,-75.08271,Fall 2023,13,34,7,16,2,11
-8347335.32,4878793.453,409,2023722N,Bus,20,Northbound,23722,Academy Rd & Comly Rd - MBNS,40.088378,-74.985389,Fall 2023,1,1,0,1,1,0
-8350004.65,4875015.389,410,2025906N,Bus,20,Northbound,25906,Academy Rd & Convent Av,40.062408,-75.009368,Fall 2023,0,1,0,0,0,0
-8348490.371,4877684.034,411,2023701N,Bus,20,Northbound,23701,Academy Rd & Cromwell Rd,40.080753,-74.995765,Fall 2023,1,8,0,1,0,4
-8350002.981,4875370.439,412,2023698N,Bus,20,Northbound,23698,Academy Rd & Eden St,40.064849,-75.009353,Fall 2023,7,19,1,12,5,10
-8346541.278,4879738.267,413,2023365N,Bus,20,Northbound,23365,Academy Rd & Fairdale Rd,40.094871,-74.978256,Fall 2023,3,22,4,11,3,7
-8349181.777,4876741.161,414,2023355N,Bus,20,Northbound,23355,Academy Rd & Glenn St,40.074272,-75.001976,Fall 2023,0,3,0,1,0,0
-8349789.025,4875981.953,415,20406N,Bus,20,Northbound,406,Academy Rd & Grant Av,40.069053,-75.007431,Fall 2023,11,49,16,35,7,33
-8349588.538,4876126.837,416,2023700N,Bus,20,Northbound,23700,Academy Rd & Grant Av - MBFS,40.070049,-75.00563,Fall 2023,9,19,4,5,2,6
-8349936.746,4874393.463,417,2023844N,Bus,20,Northbound,23844,Academy Rd & Holme Av - FS,40.058132,-75.008758,Fall 2023,0,2,0,0,0,0
-8349943.536,4875723.902,418,2023699N,Bus,20,Northbound,23699,Academy Rd & Holyoke Rd,40.067279,-75.008819,Fall 2023,3,12,3,4,2,5
-8348797.836,4877364.399,419,2023359N,Bus,20,Northbound,23359,Academy Rd & Morrell Av,40.078556,-74.998527,Fall 2023,4,20,3,8,4,7
-8346944.7,4879331.985,420,2023363N,Bus,20,Northbound,23363,Academy Rd & Newberry Rd,40.092079,-74.98188,Fall 2023,8,22,8,10,3,5
-8349974.149,4874632.571,421,2023845N,Bus,20,Northbound,23845,Academy Rd & Outlook Av,40.059776,-75.009094,Fall 2023,0,0,0,0,0,0
-8349129.011,4876849.832,422,2023356N,Bus,20,Northbound,23356,Academy Rd & President St,40.075019,-75.001502,Fall 2023,1,3,0,3,0,1
-8348660.245,4877549.166,423,2023360N,Bus,20,Northbound,23360,Academy Rd & Red Lion Rd,40.079826,-74.997291,Fall 2023,2,11,0,6,0,9
-8348337.53,4877800.571,424,2023702N,Bus,20,Northbound,23702,Academy Rd & Red Lion Rd,40.081554,-74.994392,Fall 2023,6,19,2,13,2,7
-8347472.911,4878513.795,425,2023721N,Bus,20,Northbound,23721,Academy Rd & Ryan Dr North,40.086456,-74.986625,Fall 2023,11,14,0,0,0,1
-8347674.177,4878282.305,426,2023720N,Bus,20,Northbound,23720,Academy Rd & Ryan High School South Entrance,40.084865,-74.988433,Fall 2023,5,30,1,1,1,1
-8345720.854,4879976.922,427,201475N,Bus,20,Northbound,1475,Academy Rd & Torrey Rd,40.096511,-74.970886,Fall 2023,0,1,0,0,0,0
-8346756.125,4879529.012,428,2023364N,Bus,20,Northbound,23364,Academy Rd & Woodhaven Rd,40.093433,-74.980186,Fall 2023,9,38,6,14,2,10
-8352090.555,4874224.752,429,2023341N,Bus,20,Northbound,23341,Ashton Rd & Holme Cir - FS,40.056972,-75.028106,Fall 2023,33,12,10,7,6,8
-8351959.755,4874397.826,430,2023342N,Bus,20,Northbound,23342,Ashton Rd & Jenny Pl,40.058162,-75.026931,Fall 2023,3,6,1,1,0,1
-8351866.358,4874517.088,431,2023343N,Bus,20,Northbound,23343,Ashton Rd & Jenny Pl - MBFS,40.058982,-75.026092,Fall 2023,4,13,0,2,1,0
-8351607.317,4874848.413,432,2023345N,Bus,20,Northbound,23345,Ashton Rd & Maxwell St,40.06126,-75.023765,Fall 2023,8,6,2,1,3,5
-8351683.794,4874747.909,433,2023344N,Bus,20,Northbound,23344,Ashton Rd & Tolbut St - FS,40.060569,-75.024452,Fall 2023,3,5,0,3,4,1
-8351466.387,4875033.134,434,2023346N,Bus,20,Northbound,23346,Ashton Rd & Tremont St,40.06253,-75.022499,Fall 2023,8,20,3,7,4,5
-8357090.359,4870484.92,435,2022337N,Bus,20,Northbound,22337,Bustleton Av & Benner St,40.031253,-75.07302,Fall 2023,8,7,5,3,3,3
-8357351.96,4869887.701,436,2022335N,Bus,20,Northbound,22335,Bustleton Av & Cheltenham Av - FS,40.027145,-75.07537,Fall 2023,15,0,9,0,19,0
-8357159.154,4870290.253,437,20326N,Bus,20,Northbound,326,Bustleton Av & Comly St - FS,40.029914,-75.073638,Fall 2023,7,2,3,0,3,0
-8357007.203,4870689.623,438,201107N,Bus,20,Northbound,1107,Bustleton Av & Devereux Av,40.032661,-75.072273,Fall 2023,19,19,9,6,13,8
-8356913.806,4870901.454,439,2023039N,Bus,20,Northbound,23039,Bustleton Av & Robbins Av,40.034118,-75.071434,Fall 2023,14,14,15,17,9,8
-8357250.881,4870042.963,440,2022336N,Bus,20,Northbound,22336,Bustleton Av & Van Kirk St,40.028213,-75.074462,Fall 2023,8,0,9,1,4,0
-8347832.139,4878154.703,441,2023713N,Bus,20,Northbound,23713,Chalfont Dr & Academy Rd,40.083988,-74.989852,Fall 2023,2,6,0,4,2,3
-8347397.325,4877930.496,442,2023711N,Bus,20,Northbound,23711,Chalfont Dr & Byrne Rd,40.082447,-74.985946,Fall 2023,2,8,0,1,0,2
-8347675.958,4878010.954,443,2023712N,Bus,20,Northbound,23712,Chalfont Dr & Calera Rd,40.083,-74.988449,Fall 2023,7,4,1,4,0,1
-8350039.493,4875028.77,444,2023697N,Bus,20,Northbound,23697,Convent Av & Academy Rd,40.0625,-75.009681,Fall 2023,3,14,4,4,3,1
-8350190.665,4875015.389,445,2023696N,Bus,20,Northbound,23696,Convent Av & Andover Rd,40.062408,-75.011039,Fall 2023,3,11,2,2,1,2
-8350387.701,4874978.153,446,2023695N,Bus,20,Northbound,23695,Convent Av & Annapolis Rd,40.062152,-75.012809,Fall 2023,0,13,2,9,1,5
-8350725.778,4874890.011,447,2023694N,Bus,20,Northbound,23694,Convent Av & Fordham Rd - MBFS,40.061546,-75.015846,Fall 2023,1,3,1,3,0,3
-8350967.787,4874692.494,448,2023693N,Bus,20,Northbound,23693,Convent Av & Willits Rd - FS,40.060188,-75.01802,Fall 2023,16,32,4,12,7,12
-8348576.199,4878859.513,449,2022887N,Bus,20,Northbound,22887,Decatur Rd & Drummond Rd,40.088832,-74.996536,Fall 2023,0,0,0,0,0,0
-8348924.406,4878547.551,450,2012N,Bus,20,Northbound,12,Decatur Rd & Drummond Rd - MBNS,40.086688,-74.999664,Fall 2023,0,0,0,0,0,0
-8348407.995,4878242.293,451,2027417N,Bus,20,Northbound,27417,Drummond Rd & 10430 - MBFS,40.08459,-74.995025,Fall 2023,0,0,0,0,0,0
-8348551.597,4878854.566,452,2027415N,Bus,20,Northbound,27415,Drummond Rd & Decatur Rd - FS,40.088798,-74.996315,Fall 2023,0,0,0,0,0,0
-8348455.528,4878652.023,453,2027416N,Bus,20,Northbound,27416,Drummond Rd & Decatur Rd - MBFS,40.087406,-74.995452,Fall 2023,0,0,0,0,0,0
-8348796.945,4877805.518,454,2022553N,Bus,20,Northbound,22553,Drummond Rd & Red Lion Rd,40.081588,-74.998519,Fall 2023,0,0,0,0,0,0
-8348568.518,4877995.968,455,2022552N,Bus,20,Northbound,22552,Drummond Rd & Red Lion Rd - MBNS,40.082897,-74.996467,Fall 2023,0,0,0,0,0,0
-8357595.749,4869373.668,456,20340N,Bus,20,Northbound,340,Frankford Transportation Center - Rts 20 & 50,40.023609,-75.07756,Fall 2023,871,0,578,0,476,0
-8345066.852,4879147.038,457,2022585N,Bus,20,Northbound,22585,Franklin Mills & Design Center Dr,40.090808,-74.965011,Fall 2023,4,51,4,58,1,42
-8345061.731,4878958.313,458,2023734N,Bus,20,Northbound,23734,Franklin Mills & Design Ctr - MBFS,40.089511,-74.964965,Fall 2023,0,41,0,33,0,29
-8345153.458,4878780.794,459,2021118N,Bus,20,Northbound,21118,Franklin Mills & Liberty Bell Blvd,40.088291,-74.965789,Fall 2023,4,49,4,52,2,56
-8351838.305,4874131.527,460,2022366N,Bus,20,Northbound,22366,Holme Av & Arthur St,40.056331,-75.02584,Fall 2023,0,0,0,0,0,0
-8353776.489,4874405.68,461,2023335N,Bus,20,Northbound,23335,Holme Av & Fairfield St,40.058216,-75.043251,Fall 2023,27,16,14,15,10,16
-8352232.376,4874138.799,462,2023340N,Bus,20,Northbound,23340,Holme Av & Holme Cir,40.056381,-75.02938,Fall 2023,8,52,3,24,2,14
-8351403.491,4874136.035,463,2022367N,Bus,20,Northbound,22367,Holme Av & Longford St - FS,40.056362,-75.021934,Fall 2023,0,0,0,0,0,0
-8351114.728,4874133.272,464,201112N,Bus,20,Northbound,1112,Holme Av & Pennypack St,40.056343,-75.01934,Fall 2023,0,1,0,0,0,0
-8353587.023,4874329.614,465,2023336N,Bus,20,Northbound,23336,Holme Av & Revere St,40.057693,-75.041549,Fall 2023,6,22,3,5,4,3
-8353249.836,4874429.532,466,2023337N,Bus,20,Northbound,23337,Holme Av & Revere St - MBFS,40.05838,-75.03852,Fall 2023,1,1,1,0,2,1
-8352434.532,4874158.142,467,2023339N,Bus,20,Northbound,23339,Holme Av & Stamford St,40.056514,-75.031196,Fall 2023,1,11,0,5,0,7
-8350402.172,4874134.29,468,2025904N,Bus,20,Northbound,25904,Holme Av & Willits Rd,40.05635,-75.012939,Fall 2023,0,0,0,0,0,0
-8350236.529,4874167.595,469,2025905N,Bus,20,Northbound,25905,Holme Av & Willits Rd - MBFS,40.056579,-75.011451,Fall 2023,0,0,0,0,0,0
-8352809.122,4874243.078,470,2023338N,Bus,20,Northbound,23338,Holme Av & Winchester Av,40.057098,-75.034561,Fall 2023,4,19,3,6,3,4
-8352628.228,4874184.757,471,2025907N,Bus,20,Northbound,25907,Holme Av & Winchester Av - MBFS,40.056697,-75.032936,Fall 2023,0,1,1,1,0,0
-8347679.298,4876866.562,472,2022569N,Bus,20,Northbound,22569,Keswick Rd & Ashfield Ln,40.075134,-74.988479,Fall 2023,2,13,5,5,0,4
-8347189.269,4877491.989,473,2023708N,Bus,20,Northbound,23708,Keswick Rd & Brookview Rd,40.079433,-74.984077,Fall 2023,0,2,1,1,0,1
-8347159.547,4877720.697,474,2023709N,Bus,20,Northbound,23709,Keswick Rd & Carey Rd,40.081005,-74.98381,Fall 2023,0,1,0,0,0,1
-8347158.656,4877896.596,475,2023710N,Bus,20,Northbound,23710,Keswick Rd & Chalfont Dr,40.082214,-74.983802,Fall 2023,1,12,0,7,0,6
-8347387.975,4877169.596,476,2023707N,Bus,20,Northbound,23707,Keswick Rd & Rayland Rd,40.077217,-74.985862,Fall 2023,3,8,0,1,1,2
-8347585.901,4876945.848,477,2022570N,Bus,20,Northbound,22570,Keswick Rd & Red Lion Rd,40.075679,-74.98764,Fall 2023,7,30,4,12,5,6
-8347163.777,4877586.847,478,2025908N,Bus,20,Northbound,25908,Kewick Rd & Helmer Dr,40.080085,-74.983848,Fall 2023,1,4,1,2,1,0
-8343853.247,4880674.73,479,2021127N,Bus,20,Northbound,21127,Knights Rd & Dunks Ferry Rd - FS,40.101306,-74.954109,Fall 2023,0,0,0,0,0,0
-8344471.515,4879786.58,480,2031298N,Bus,20,Northbound,31298,Knights Rd & Franklin Mills Circle,40.095203,-74.959663,Fall 2023,0,0,0,0,0,0
-8344073.993,4880434.458,481,2023370N,Bus,20,Northbound,23370,Knights Rd & Lakewood Av,40.099655,-74.956092,Fall 2023,0,0,0,0,0,0
-8343647.64,4880931.309,482,2021128N,Bus,20,Northbound,21128,Knights Rd & McKinley Av - FS,40.103069,-74.952262,Fall 2023,0,0,0,0,0,0
-8344286.391,4880146.895,483,2017061N,Bus,20,Northbound,17061,Knights Rd & Plum Av,40.097679,-74.958,Fall 2023,0,1,0,1,0,1
-8349526.533,4882537.006,484,2029612N,Bus,20,Northbound,29612,Mast Charter School,40.114101,-75.005073,Fall 2023,0,17,0,0,0,0
-8344770.408,4879533.378,485,20409N,Bus,20,Northbound,409,Mechanicsville Rd & Knights Rd,40.093463,-74.962348,Fall 2023,0,36,0,34,0,22
-8344721.205,4879505.147,486,201522N,Bus,20,Northbound,1522,Mechanicsville Rd & Knights Rd,40.093269,-74.961906,Fall 2023,0,1,0,0,0,0
-8344931.821,4879676.131,487,2030758N,Bus,20,Northbound,30758,Mechanicsville Rd & Mechanicsville Pl,40.094444,-74.963798,Fall 2023,0,0,0,1,0,0
-8344851.115,4879605.554,488,2023733N,Bus,20,Northbound,23733,Mechanicsville Rd & Verda Dr,40.093959,-74.963073,Fall 2023,0,19,0,10,1,9
-8345038.02,4879773.774,489,2025909N,Bus,20,Northbound,25909,Mechanicsville Rd & Westhampton Dr,40.095115,-74.964752,Fall 2023,0,13,0,0,1,0
-8346209.212,4880257.349,490,2023724N,Bus,20,Northbound,23724,Medford Rd & Ancona Rd,40.098438,-74.975273,Fall 2023,1,3,3,1,1,2
-8345595.953,4880610.405,491,20979N,Bus,20,Northbound,979,Medford Rd & Atmore Rd - FS,40.100864,-74.969764,Fall 2023,0,5,0,2,0,0
-8346006.166,4880438.242,492,2023725N,Bus,20,Northbound,23725,Medford Rd & Belgreen Rd,40.099681,-74.973449,Fall 2023,2,18,1,9,2,9
-8345755.697,4880577.66,493,2023726N,Bus,20,Northbound,23726,Medford Rd & Danley Rd,40.100639,-74.971199,Fall 2023,0,2,0,0,0,3
-8345116.166,4880472.732,494,2023729N,Bus,20,Northbound,23729,Medford Rd & Hollins Rd,40.099918,-74.965454,Fall 2023,1,3,0,1,1,1
-8345363.296,4880597.598,495,2023728N,Bus,20,Northbound,23728,Medford Rd & Lester Rd,40.100776,-74.967674,Fall 2023,3,12,3,9,1,6
-8345052.38,4880346.704,496,2023730N,Bus,20,Northbound,23730,Medford Rd & Orion Rd,40.099052,-74.964881,Fall 2023,1,1,1,4,1,4
-8346291.589,4880119.099,497,2023723N,Bus,20,Northbound,23723,Medford Rd & Tyrone Rd - FS,40.097488,-74.976013,Fall 2023,1,3,0,4,0,3
-8345043.92,4880184.004,498,2023731N,Bus,20,Northbound,23731,Medford Rd & Vinton Rd,40.097934,-74.964805,Fall 2023,2,8,0,1,0,0
-8348723.141,4877328.755,499,2023703N,Bus,20,Northbound,23703,Morrell Av & Canterbury Rd,40.078311,-74.997856,Fall 2023,1,22,1,18,1,16
-8348452.189,4877158.976,500,2023704N,Bus,20,Northbound,23704,Morrell Av & Chesterfield Rd,40.077144,-74.995422,Fall 2023,2,15,0,9,3,4
-8347851.732,4876891.002,501,20407N,Bus,20,Northbound,407,Morrell Av & Kayford Circle - 2,40.075302,-74.990028,Fall 2023,1,2,0,3,0,1
-8358034.014,4868701.512,502,323967E,Bus,3,Eastbound,23967,Frankford Av & Harrison St,40.018985,-75.081497,Fall 2023,10,40,5,22,6,24
-8358279.474,4868356.148,503,323965E,Bus,3,Eastbound,23965,Frankford Av & Margaret St,40.016609,-75.083702,Fall 2023,54,184,21,104,19,69
-8358480.739,4868069.953,504,319010E,Bus,3,Eastbound,19010,Frankford Av & Orthodox St,40.01464,-75.08551,Fall 2023,14,35,10,13,3,8
-8358890.061,4867404.715,505,323961E,Bus,3,Eastbound,23961,Frankford Av & Ruan St,40.010063,-75.089187,Fall 2023,13,19,6,15,7,16
-8358573.246,4867937.977,506,323964E,Bus,3,Eastbound,23964,Frankford Av & Sellers St,40.013732,-75.086341,Fall 2023,20,44,9,22,4,8
-8358718.518,4867729.552,507,323963E,Bus,3,Eastbound,23963,Frankford Av & Unity St,40.012298,-75.087646,Fall 2023,34,27,13,10,2,14
-8357913.344,4868872.308,508,323968E,Bus,3,Eastbound,23968,Frankford Av & Wakeling St,40.02016,-75.080413,Fall 2023,3,64,1,26,1,22
-8357586.398,4869328.168,509,321204E,Bus,3,Eastbound,21204,Frankford Transportation Center - Main Dropoff,40.023296,-75.077476,Fall 2023,0,385,0,195,0,160
-8363744.704,4863251.223,510,325403E,Bus,3,Eastbound,25403,Front St & Coral St,39.981479,-75.132797,Fall 2023,9,12,12,7,4,5
-8363668.227,4863706.244,511,319004E,Bus,3,Eastbound,19004,Front St & Dauphin St,39.984611,-75.13211,Fall 2023,30,26,8,10,11,7
-8363780.326,4863032.292,512,325402E,Bus,3,Eastbound,25402,Front St & Norris St,39.979972,-75.133117,Fall 2023,2,18,3,8,4,9
-8363709.861,4863465.22,513,325404E,Bus,3,Eastbound,25404,Front St & Susquehanna Av,39.982952,-75.132484,Fall 2023,7,11,2,7,2,3
-8363634.275,4863930.13,514,321639E,Bus,3,Eastbound,21639,Front St & York St,39.986152,-75.131805,Fall 2023,15,46,7,17,2,11
-8359159.343,4867164.037,515,325410E,Bus,3,Eastbound,25410,Kensington Av & Adams Av,40.008407,-75.091606,Fall 2023,13,13,2,2,2,1
-8361608.706,4865409.997,516,321175E,Bus,3,Eastbound,21175,Kensington Av & Allegheny Av,39.996337,-75.113609,Fall 2023,95,129,61,66,45,45
-8362365.455,4864864.084,517,38970E,Bus,3,Eastbound,8970,Kensington Av & Cambria St,39.99258,-75.120407,Fall 2023,25,23,11,18,9,13
-8360043.442,4866529.233,518,325408E,Bus,3,Eastbound,25408,Kensington Av & Castor Av,40.004039,-75.099548,Fall 2023,3,12,1,8,2,5
-8361857.505,4865227.635,519,317743E,Bus,3,Eastbound,17743,Kensington Av & Clearfield St,39.995082,-75.115844,Fall 2023,34,85,10,42,8,32
-8363394.715,4864117.989,520,325405E,Bus,3,Eastbound,25405,Kensington Av & Cumberland St,39.987445,-75.129653,Fall 2023,62,47,19,21,13,19
-8359447.215,4866956.646,521,325409E,Bus,3,Eastbound,25409,Kensington Av & Hunting Park Av,40.00698,-75.094192,Fall 2023,19,7,4,5,5,4
-8363137.456,4864303.672,522,319005E,Bus,3,Eastbound,19005,Kensington Av & Huntingdon St,39.988723,-75.127342,Fall 2023,44,36,23,16,16,15
-8362928.509,4864451.727,523,325406E,Bus,3,Eastbound,25406,Kensington Av & Lehigh Av,39.989742,-75.125465,Fall 2023,18,11,6,6,8,8
-8361073.593,4865792.023,524,317745E,Bus,3,Eastbound,17745,Kensington Av & Ontario St,39.998966,-75.108802,Fall 2023,32,46,15,25,13,30
-8362142.037,4865019.267,525,325407E,Bus,3,Eastbound,25407,Kensington Av & Orleans St,39.993648,-75.1184,Fall 2023,17,38,15,15,11,19
-8360305.822,4866343.509,526,326262E,Bus,3,Eastbound,26262,Kensington Av & Sedgley Av,40.002761,-75.101905,Fall 2023,17,21,8,17,5,9
-8362602.343,4864683.33,527,319006E,Bus,3,Eastbound,19006,Kensington Av & Somerset St,39.991336,-75.122535,Fall 2023,71,59,42,35,32,29
-8360819.673,4865971.052,528,319007E,Bus,3,Eastbound,19007,Kensington Av & Tioga St,40.000198,-75.106521,Fall 2023,28,41,15,24,21,17
-8359694.344,4866782.104,529,319008E,Bus,3,Eastbound,19008,Kensington Av & Torresdale Av,40.005779,-75.096412,Fall 2023,48,116,27,45,8,39
-8360580.225,4866147.324,530,317747E,Bus,3,Eastbound,17747,Kensington Av & Venango St,40.001411,-75.10437,Fall 2023,18,36,8,18,4,15
-8361320.722,4865614.594,531,317744E,Bus,3,Eastbound,17744,Kensington Av & Westmoreland St,39.997745,-75.111022,Fall 2023,31,44,13,17,16,17
-8359009.841,4867271.586,532,325411E,Bus,3,Eastbound,25411,Kensington Av & Womrath St,40.009147,-75.090263,Fall 2023,9,15,2,2,6,4
-8370590.073,4863406.381,533,331656E,Bus,3,Eastbound,31656,Resevoir Dr & SmithDay Nursery Dr,39.982547,-75.19429,Fall 2023,0,0,7,0,7,0
-8365143.433,4862622.771,534,325468W,Bus,3,Westbound,25468,6th St & Cecil B Moore Av,39.977153,-75.145362,Fall 2023,35,48,13,13,7,11
-8365112.932,4862845.616,535,325467W,Bus,3,Westbound,25467,6th St & Montgomery Av,39.978687,-75.145088,Fall 2023,14,4,4,4,0,3
-8369994.625,4863383.717,536,355W,Bus,3,Westbound,55,33rd St & Cecil B Moore Av Loop,39.982391,-75.188941,Fall 2023,0,49,0,23,0,21
-8364248.313,4862919.269,537,325456W,Bus,3,Westbound,25456,Berks St & 2nd St,39.979194,-75.137321,Fall 2023,21,13,10,3,12,3
-8364531.955,4862970.26,538,325458W,Bus,3,Westbound,25458,Berks St & 3rd St,39.979545,-75.139869,Fall 2023,18,13,1,5,6,4
-8364643.275,4862990.743,539,325459W,Bus,3,Westbound,25459,Berks St & 4th St,39.979686,-75.140869,Fall 2023,23,22,8,13,8,10
-8364849.661,4863021.251,540,325460W,Bus,3,Westbound,25460,Berks St & 5th St,39.979896,-75.142723,Fall 2023,17,25,11,8,5,3
-8365050.036,4863055.681,541,325465W,Bus,3,Westbound,25465,Berks St & 6th St,39.980133,-75.144523,Fall 2023,45,42,26,15,23,8
-8364380.783,4862942.077,542,325457W,Bus,3,Westbound,25457,Berks St & American St,39.979351,-75.138511,Fall 2023,42,33,19,8,11,8
-8363850.791,4862853.896,543,331367W,Bus,3,Westbound,31367,Berks St & Front St - FS,39.978744,-75.13375,Fall 2023,104,24,32,13,25,10
-8364914.115,4863032.873,544,326260W,Bus,3,Westbound,26260,Berks St & Germantown Av,39.979976,-75.143302,Fall 2023,32,42,14,31,8,23
-8364028.346,4862883.822,545,325455W,Bus,3,Westbound,25455,Berks St & Mascher St,39.97895,-75.135345,Fall 2023,49,7,16,2,9,2
-8365292.935,4862643.835,546,325469W,Bus,3,Westbound,25469,Cecil B Moore Av & 7th St,39.977298,-75.146705,Fall 2023,64,28,16,7,17,12
-8365510.342,4862680.443,547,325470W,Bus,3,Westbound,25470,Cecil B Moore Av & 8th St - FS,39.97755,-75.148658,Fall 2023,91,57,29,24,27,20
-8365754.132,4862719.23,548,325471W,Bus,3,Westbound,25471,Cecil B Moore Av & 10th St,39.977817,-75.150848,Fall 2023,25,15,11,11,5,6
-8365930.796,4862745.814,549,325472W,Bus,3,Westbound,25472,Cecil B Moore Av & 11th St,39.978,-75.152435,Fall 2023,28,43,10,15,7,13
-8366104.009,4862774.723,550,325473W,Bus,3,Westbound,25473,Cecil B Moore Av & 12th St,39.978199,-75.153991,Fall 2023,82,65,29,19,22,9
-8366279.003,4862802.906,551,325474W,Bus,3,Westbound,25474,Cecil B Moore Av & 13th St,39.978393,-75.155563,Fall 2023,28,48,9,8,8,11
-8366706.136,4862882.66,552,325475W,Bus,3,Westbound,25475,Cecil B Moore Av & 15th St,39.978942,-75.1594,Fall 2023,152,51,59,24,48,13
-8366880.24,4862913.167,553,325476W,Bus,3,Westbound,25476,Cecil B Moore Av & 16th St,39.979152,-75.160964,Fall 2023,37,67,15,19,17,18
-8367056.904,4862942.077,554,325477W,Bus,3,Westbound,25477,Cecil B Moore Av & 17th St,39.979351,-75.162551,Fall 2023,47,56,27,18,12,22
-8367232.789,4862972.439,555,325478W,Bus,3,Westbound,25478,Cecil B Moore Av & 18th St,39.97956,-75.164131,Fall 2023,45,63,12,26,7,10
-8367407.672,4863000.186,556,325479W,Bus,3,Westbound,25479,Cecil B Moore Av & 19th St,39.979751,-75.165702,Fall 2023,52,122,24,49,20,52
-8367580.996,4863027.352,557,354W,Bus,3,Westbound,54,Cecil B Moore Av & 20th St,39.979938,-75.167259,Fall 2023,21,77,5,38,5,28
-8367790.722,4863062.8,558,325480W,Bus,3,Westbound,25480,Cecil B Moore Av & 21st St,39.980182,-75.169143,Fall 2023,13,80,5,31,4,22
-8367958.926,4863092.145,559,325481W,Bus,3,Westbound,25481,Cecil B Moore Av & 22nd St,39.980384,-75.170654,Fall 2023,30,169,9,76,9,53
-8368329.175,4863154.323,560,325483W,Bus,3,Westbound,25483,Cecil B Moore Av & 24th St,39.980812,-75.17398,Fall 2023,15,85,12,40,4,35
-8368506.729,4863185.848,561,325484W,Bus,3,Westbound,25484,Cecil B Moore Av & 25th St,39.981029,-75.175575,Fall 2023,7,98,2,56,4,56
-8368684.172,4863214.613,562,325485W,Bus,3,Westbound,25485,Cecil B Moore Av & 26th St,39.981227,-75.177169,Fall 2023,6,128,1,64,3,49
-8368854.936,4863245.121,563,325486W,Bus,3,Westbound,25486,Cecil B Moore Av & 27th St,39.981437,-75.178703,Fall 2023,1,82,3,38,3,43
-8369013.789,4863272.87,564,325487W,Bus,3,Westbound,25487,Cecil B Moore Av & 28th St,39.981628,-75.18013,Fall 2023,6,131,1,56,2,43
-8369196.353,4863301.635,565,325488W,Bus,3,Westbound,25488,Cecil B Moore Av & 29th St,39.981826,-75.18177,Fall 2023,8,204,6,111,6,86
-8369376.357,4863330.981,566,325489W,Bus,3,Westbound,25489,Cecil B Moore Av & 30th St,39.982028,-75.183387,Fall 2023,2,60,1,19,0,20
-8369539.44,4863358.148,567,325490W,Bus,3,Westbound,25490,Cecil B Moore Av & 31st St,39.982215,-75.184852,Fall 2023,0,66,0,32,0,30
-8369728.015,4863391.417,568,325491W,Bus,3,Westbound,25491,Cecil B Moore Av & 32nd St,39.982444,-75.186546,Fall 2023,1,63,0,31,0,23
-8369917.37,4863424.686,569,326263W,Bus,3,Westbound,26263,Cecil B Moore Av & 33rd St,39.982673,-75.188247,Fall 2023,12,22,2,29,2,28
-8366520.233,4862848.376,570,353W,Bus,3,Westbound,53,Cecil B Moore Av & Broad St,39.978706,-75.15773,Fall 2023,608,344,308,162,254,133
-8368148.28,4863123.815,571,325482W,Bus,3,Westbound,25482,Cecil B Moore Av & Ridge Av,39.980602,-75.172355,Fall 2023,44,298,25,141,19,108
-8358835.737,4867545.985,572,324095W,Bus,3,Westbound,24095,Frankford Av & Church St,40.011035,-75.088699,Fall 2023,20,6,4,2,5,5
-8357796.124,4869065.349,573,324089W,Bus,3,Westbound,24089,Frankford Av & Dyre St,40.021488,-75.07936,Fall 2023,56,0,29,0,21,0
-8358158.803,4868556.3,574,324091W,Bus,3,Westbound,24091,Frankford Av & Foulkrod St,40.017986,-75.082618,Fall 2023,24,2,8,2,11,1
-8358031.454,4868738.142,575,324090W,Bus,3,Westbound,24090,Frankford Av & Harrison St,40.019237,-75.081474,Fall 2023,20,0,14,0,12,0
-8358474.728,4868103.819,576,319011W,Bus,3,Westbound,19011,Frankford Av & Orthodox St,40.014873,-75.085456,Fall 2023,40,21,14,12,14,6
-8358271.792,4868394.957,577,325421W,Bus,3,Westbound,25421,Frankford Av & Oxford Av,40.016876,-75.083633,Fall 2023,139,37,65,10,49,3
-8358878.15,4867466.775,578,324129W,Bus,3,Westbound,24129,Frankford Av & Ruan St - MBNS,40.01049,-75.08908,Fall 2023,28,24,18,6,15,6
-8358569.016,4867973.587,579,324093W,Bus,3,Westbound,24093,Frankford Av & Sellers St,40.013977,-75.086303,Fall 2023,39,12,20,7,8,6
-8358706.606,4867779.405,580,324094W,Bus,3,Westbound,24094,Frankford Av & Unity St,40.012641,-75.087539,Fall 2023,32,22,17,7,14,8
-8357908.334,4868907.34,581,324088W,Bus,3,Westbound,24088,Frankford Av & Wakeling St,40.020401,-75.080368,Fall 2023,33,0,14,0,12,0
-8357656.864,4869476.735,582,321971W,Bus,3,Westbound,21971,Frankford Transportation Center - Rt 3,40.024318,-75.078109,Fall 2023,435,0,198,0,164,0
-8363679.248,4863746.197,583,352W,Bus,3,Westbound,52,Front St & Dauphin St,39.984886,-75.132209,Fall 2023,48,23,17,7,16,8
-8363757.394,4863285.073,584,325452W,Bus,3,Westbound,25452,Front St & Diamond St,39.981712,-75.132911,Fall 2023,13,17,5,10,5,10
-8363793.907,4863071.08,585,325453W,Bus,3,Westbound,25453,Front St & Norris St,39.980239,-75.133239,Fall 2023,20,5,10,1,5,1
-8363719.991,4863512.872,586,325451W,Bus,3,Westbound,25451,Front St & Susquehanna Av,39.98328,-75.132575,Fall 2023,17,12,11,6,6,1
-8359133.851,4867205.022,587,325427W,Bus,3,Westbound,25427,Kensington Av & Adams Av,40.008689,-75.091377,Fall 2023,10,9,0,1,3,0
-8361550.931,4865473.788,588,351W,Bus,3,Westbound,51,Kensington Av & Allegheny Av,39.996776,-75.11309,Fall 2023,116,86,44,36,38,26
-8360012.829,4866574.72,589,325429W,Bus,3,Westbound,25429,Kensington Av & Castor Av,40.004352,-75.099273,Fall 2023,9,6,4,4,5,1
-8363382.025,4864149.662,590,316355W,Bus,3,Westbound,16355,Kensington Av & Cumberland St,39.987663,-75.129539,Fall 2023,45,33,21,14,9,11
-8362351.874,4864897.939,591,325440W,Bus,3,Westbound,25440,Kensington Av & E St,39.992813,-75.120285,Fall 2023,27,32,17,18,12,6
-8359692.674,4866805.938,592,319013W,Bus,3,Westbound,19013,Kensington Av & Erie Av,40.005943,-75.096397,Fall 2023,121,48,55,27,37,13
-8362097.064,4865080.731,593,325438W,Bus,3,Westbound,25438,Kensington Av & F St,39.994071,-75.117996,Fall 2023,41,19,19,12,14,12
-8363612.234,4863983.305,594,319017W,Bus,3,Westbound,19017,Kensington Av & Front St,39.986518,-75.131607,Fall 2023,33,24,13,11,15,4
-8361829.452,4865272.099,595,325436W,Bus,3,Westbound,25436,Kensington Av & G St,39.995388,-75.115592,Fall 2023,73,24,39,14,25,14
-8359425.953,4866996.612,596,325428W,Bus,3,Westbound,25428,Kensington Av & Hunting Park Av,40.007255,-75.094001,Fall 2023,16,18,3,3,5,3
-8363126.435,4864335.927,597,319016W,Bus,3,Westbound,19016,Kensington Av & Huntingdon St,39.988945,-75.127243,Fall 2023,49,42,20,18,19,11
-8361303.801,4865650.632,598,317853W,Bus,3,Westbound,17853,Kensington Av & I St,39.997993,-75.11087,Fall 2023,31,32,20,16,13,11
-8361054.891,4865828.061,599,317848W,Bus,3,Westbound,17848,Kensington Av & J St,39.999214,-75.108634,Fall 2023,40,17,18,13,15,10
-8360795.071,4866013.195,600,319014W,Bus,3,Westbound,19014,Kensington Av & K St,40.000488,-75.1063,Fall 2023,61,20,34,9,26,14
-8362920.049,4864480.495,601,38986W,Bus,3,Westbound,8986,Kensington Av & Lehigh Av,39.98994,-75.125389,Fall 2023,14,34,8,14,10,9
-8360265.079,4866396.842,602,325430W,Bus,3,Westbound,25430,Kensington Av & M St,40.003128,-75.101539,Fall 2023,20,16,11,7,5,1
-8362593.883,4864716.023,603,3801W,Bus,3,Westbound,801,Kensington Av & Somerset St,39.991561,-75.122459,Fall 2023,50,45,35,16,33,14
-8360552.951,4866188.886,604,317840W,Bus,3,Westbound,17840,Kensington Av & Venango St,40.001697,-75.104125,Fall 2023,18,18,10,3,9,2
-8359000.49,4867302.688,605,325426W,Bus,3,Westbound,25426,Kensington Av & Womrath St,40.009361,-75.090179,Fall 2023,13,7,6,2,6,2
-8370699.612,4863538.878,606,331684W,Bus,3,Westbound,31684,Resevoir Dr & SmithDay Nursery Dr - 1,39.983459,-75.195274,Fall 2023,0,0,0,3,0,4
-8364625.352,4868458.622,607,417375N,Bus,4,Northbound,17375,9th St & Bristol St,40.017314,-75.140708,Fall 2023,5,24,2,14,2,11
-8364813.928,4867345.853,608,417368N,Bus,4,Northbound,17368,9th St & Butler St,40.009658,-75.142402,Fall 2023,10,28,3,10,2,8
-8364588.84,4868678.254,609,417377N,Bus,4,Northbound,17377,9th St & Cayuga St,40.018825,-75.14038,Fall 2023,12,33,6,20,4,17
-8364283.936,4870445.085,610,417389N,Bus,4,Northbound,17389,9th St & Duncannon Av,40.030979,-75.137641,Fall 2023,5,20,3,3,2,4
-8364848.771,4867110.263,611,4167N,Bus,4,Northbound,167,9th St & Erie Av,40.008037,-75.142715,Fall 2023,26,51,17,30,11,19
-8364247.423,4870670.722,612,417390N,Bus,4,Northbound,17390,9th St & Fisher Av,40.032531,-75.137313,Fall 2023,9,14,3,10,2,7
-8364666.207,4868229.11,613,417374N,Bus,4,Northbound,17374,9th St & Hunting Park Av,40.015735,-75.141075,Fall 2023,15,49,6,16,2,14
-8364321.339,4870222.651,614,417387N,Bus,4,Northbound,17387,9th St & Lindley Av,40.029449,-75.137977,Fall 2023,24,67,5,17,3,19
-8364431.768,4869569.917,615,428692N,Bus,4,Northbound,28692,9th St & Loudon St,40.024959,-75.138969,Fall 2023,7,15,1,11,1,6
-8364740.011,4867776.644,616,417370N,Bus,4,Northbound,17370,9th St & Luzerne St,40.012622,-75.141738,Fall 2023,24,58,7,23,10,26
-8364703.499,4867995.68,617,417372N,Bus,4,Northbound,17372,9th St & Lycoming St,40.014129,-75.14141,Fall 2023,5,30,1,14,1,11
-8364775.745,4867561.537,618,417369N,Bus,4,Northbound,17369,9th St & Pike St,40.011142,-75.142059,Fall 2023,13,42,9,22,7,13
-8364395.255,4869786.23,619,417384N,Bus,4,Northbound,17384,9th St & Rockland St,40.026447,-75.138641,Fall 2023,10,65,8,26,6,21
-8364537.967,4868968.247,620,417379N,Bus,4,Northbound,17379,9th St & Roosevelt Blvd,40.02082,-75.139923,Fall 2023,14,49,3,18,3,16
-8364500.563,4869171.755,621,417381N,Bus,4,Northbound,17381,9th St & Roosevelt Blvd - FS,40.02222,-75.139587,Fall 2023,5,4,1,1,1,1
-8364357.852,4870002.984,622,417386N,Bus,4,Northbound,17386,9th St & Ruscomb St,40.027938,-75.138305,Fall 2023,5,35,2,20,0,14
-8364469.95,4869338.199,623,417382N,Bus,4,Northbound,17382,9th St & Wyoming Av,40.023365,-75.139312,Fall 2023,4,8,3,4,1,3
-8364533.625,4870915.847,624,428693N,Bus,4,Northbound,28693,10th St & Wagner Av,40.034217,-75.139884,Fall 2023,0,4,1,5,0,2
-8364452.139,4871618.688,625,417398N,Bus,4,Northbound,17398,11th St & Chew St - FS,40.039051,-75.139152,Fall 2023,0,6,0,4,0,6
-8364526.835,4871172.755,626,417396N,Bus,4,Northbound,17396,11th St & Clarkson Av,40.035984,-75.139823,Fall 2023,0,7,0,4,0,2
-8364469.95,4871965.329,627,421534N,Bus,4,Northbound,21534,11th St & Nedro Av - FS,40.041435,-75.139312,Fall 2023,0,43,0,28,0,26
-8364483.531,4871434.467,628,428694N,Bus,4,Northbound,28694,11th St & Olney Av,40.037784,-75.139434,Fall 2023,4,91,2,32,0,25
-8364559.117,4870988.543,629,417394N,Bus,4,Northbound,17394,11th St & Somerville Av - FS,40.034717,-75.140113,Fall 2023,1,22,2,2,1,8
-8364501.454,4871323.53,630,430304N,Bus,4,Northbound,30304,11th St & Tabor Rd,40.037021,-75.139595,Fall 2023,0,6,1,11,2,10
-8364552.327,4872092.85,631,428695N,Bus,4,Northbound,28695,12th St & Nedro Av,40.042312,-75.140052,Fall 2023,1,25,1,16,0,11
-8365970.648,4866155.026,632,4165N,Bus,4,Northbound,165,Broad St & Allegheny Av,40.001464,-75.152793,Fall 2023,74,103,31,47,23,37
-8367112.119,4859303.355,633,417261N,Bus,4,Northbound,17261,Broad St & Arch St,39.954299,-75.163047,Fall 2023,103,53,48,41,30,26
-8367398.321,4857610.088,634,45135N,Bus,4,Northbound,5135,Broad St & Bainbridge St,39.942638,-75.165618,Fall 2023,12,9,3,3,4,0
-8368076.145,4853513.374,635,417232N,Bus,4,Northbound,17232,Broad St & Bigler St - FS,39.914417,-75.171707,Fall 2023,6,0,1,0,2,0
-8366780.052,4861292.925,636,417269N,Bus,4,Northbound,17269,Broad St & Brown St,39.967998,-75.160064,Fall 2023,22,18,3,1,7,2
-8366983.878,4860084.525,637,417264N,Bus,4,Northbound,17264,Broad St & Callowhill St - FS,39.959678,-75.161895,Fall 2023,15,13,3,2,4,2
-8367489.269,4857060.684,638,45150N,Bus,4,Northbound,5150,Broad St & Carpenter St,39.938854,-75.166435,Fall 2023,0,4,0,0,2,2
-8367445.966,4857327.106,639,45152N,Bus,4,Northbound,5152,Broad St & Catherine St,39.940689,-75.166046,Fall 2023,56,25,19,11,11,3
-8366529.584,4862819.031,640,417277N,Bus,4,Northbound,17277,Broad St & Cecil B Moore Av,39.978504,-75.157814,Fall 2023,93,75,44,31,38,20
-8367464.556,4857212.987,641,45166N,Bus,4,Northbound,5166,Broad St & Christian St,39.939903,-75.166213,Fall 2023,47,19,13,9,11,0
-8366004.712,4865964.368,642,417297N,Bus,4,Northbound,17297,Broad St & Clearfield St - FS,40.000152,-75.153099,Fall 2023,0,7,0,0,0,1
-8366231.47,4864599.639,643,417286N,Bus,4,Northbound,17286,Broad St & Cumberland St,39.99076,-75.155136,Fall 2023,16,23,5,9,8,6
-8368182.233,4852937.057,644,417229N,Bus,4,Northbound,17229,Broad St & Curtin St,39.910446,-75.17266,Fall 2023,12,0,3,0,3,2
-8366305.275,4864163.465,645,417283N,Bus,4,Northbound,17283,Broad St & Dauphin St,39.987758,-75.155799,Fall 2023,27,21,10,12,10,9
-8366376.631,4863741.693,646,417281N,Bus,4,Northbound,17281,Broad St & Diamond St - FS,39.984855,-75.15644,Fall 2023,11,27,5,11,3,11
-8367668.493,4856004.502,647,417245N,Bus,4,Northbound,17245,Broad St & Dickinson St,39.931579,-75.168045,Fall 2023,16,5,17,6,10,2
-8367541.923,4856734.453,648,417249N,Bus,4,Northbound,17249,Broad St & Ellsworth St,39.936607,-75.166908,Fall 2023,24,21,10,12,12,5
-8367568.194,4856584.916,649,417248N,Bus,4,Northbound,17248,Broad St & Federal St,39.935577,-75.167144,Fall 2023,26,16,17,3,6,6
-8367422.143,4857469.395,650,45195N,Bus,4,Northbound,5195,Broad St & Fitzwater St,39.941669,-75.165832,Fall 2023,14,12,7,3,5,5
-8368211.955,4852747.088,651,4158N,Bus,4,Northbound,158,Broad St & Geary St,39.909137,-75.172927,Fall 2023,6,0,3,0,2,0
-8366698.567,4861769.935,652,4164N,Bus,4,Northbound,164,Broad St & Girard Av,39.971282,-75.159332,Fall 2023,88,55,47,28,27,14
-8366087.868,4865458.821,653,417291N,Bus,4,Northbound,17291,Broad St & Glenwood Av,39.996673,-75.153846,Fall 2023,16,21,15,10,6,5
-8366890.481,4860664.016,654,417266N,Bus,4,Northbound,17266,Broad St & Green St,39.963668,-75.161056,Fall 2023,20,9,4,7,1,6
-8368199.265,4852549.43,655,425239N,Bus,4,Northbound,25239,Broad St & Hartranft St,39.907775,-75.172813,Fall 2023,4,0,1,0,1,0
-8366195.736,4864818.605,656,417287N,Bus,4,Northbound,17287,Broad St & Huntingdon St,39.992267,-75.154815,Fall 2023,6,12,1,6,0,3
-8366044.565,4865716.604,657,417296N,Bus,4,Northbound,17296,Broad St & Indiana Av,39.998447,-75.153457,Fall 2023,5,21,2,4,2,6
-8367874.768,4854763.505,658,417237N,Bus,4,Northbound,17237,Broad St & Jackson St,39.92303,-75.169898,Fall 2023,38,4,15,3,14,1
-8366590.698,4862417.799,659,417275N,Bus,4,Northbound,17275,Broad St & Jefferson St,39.975742,-75.158363,Fall 2023,16,37,4,8,2,7
-8366163.454,4865036.413,660,417288N,Bus,4,Northbound,17288,Broad St & Lehigh Av,39.993766,-75.154525,Fall 2023,61,88,23,44,13,34
-8367269.302,4858399.982,661,45229N,Bus,4,Northbound,5229,Broad St & Locust St,39.948078,-75.164459,Fall 2023,30,45,17,29,14,22
-8367352.457,4857882.043,662,45233N,Bus,4,Northbound,5233,Broad St & Lombard St,39.944511,-75.165206,Fall 2023,23,27,10,10,9,4
-8366623.76,4862219.949,663,417274N,Bus,4,Northbound,17274,Broad St & Master St,39.97438,-75.15866,Fall 2023,16,21,4,13,4,10
-8367812.875,4855117.396,664,417239N,Bus,4,Northbound,17239,Broad St & McKean St,39.925468,-75.169342,Fall 2023,53,15,21,3,9,2
-8367786.492,4855298.411,665,417240N,Bus,4,Northbound,17240,Broad St & Mifflin St,39.926715,-75.169105,Fall 2023,36,8,10,2,11,1
-8366486.169,4863091.128,666,417278N,Bus,4,Northbound,17278,Broad St & Montgomery Av - FS,39.980377,-75.157424,Fall 2023,10,9,3,5,2,3
-8367755.879,4855473.477,667,417241N,Bus,4,Northbound,17241,Broad St & Moore St,39.927921,-75.16883,Fall 2023,23,9,14,7,6,4
-8367723.596,4855652.321,668,417243N,Bus,4,Northbound,17243,Broad St & Morris St,39.929153,-75.16854,Fall 2023,76,30,37,10,26,15
-8366419.934,4863478.44,669,417280N,Bus,4,Northbound,17280,Broad St & Norris St,39.983043,-75.156829,Fall 2023,17,16,6,6,5,13
-8368025.161,4853824.985,670,431307N,Bus,4,Northbound,31307,Broad St & Oregon Av - 2,39.916564,-75.171249,Fall 2023,99,2,51,1,42,4
-8366562.646,4862618.994,671,417276N,Bus,4,Northbound,17276,Broad St & Oxford St,39.977127,-75.158111,Fall 2023,48,32,36,27,29,18
-8366758.011,4861419.293,672,417270N,Bus,4,Northbound,17270,Broad St & Parrish St,39.968868,-75.159866,Fall 2023,7,8,5,3,4,2
-8368251.028,4852253.387,673,431487N,Bus,4,Northbound,31487,Broad St & Pattison Av - 3 FS,39.905735,-75.173278,Fall 2023,69,0,63,0,50,0
-8367331.307,4858015.482,674,45281N,Bus,4,Northbound,5281,Broad St & Pine St,39.94543,-75.165016,Fall 2023,20,13,6,4,2,3
-8366454.777,4863268.947,675,417279N,Bus,4,Northbound,17279,Broad St & Polett Walk,39.981601,-75.157142,Fall 2023,2,22,1,4,0,2
-8368115.998,4853290.158,676,417231N,Bus,4,Northbound,17231,Broad St & Pollack St,39.912879,-75.172065,Fall 2023,2,0,0,0,1,0
-8366725.729,4861595.484,677,417271N,Bus,4,Northbound,17271,Broad St & Poplar St,39.970081,-75.159576,Fall 2023,9,15,6,7,3,8
-8367965.716,4854217.596,678,417234N,Bus,4,Northbound,17234,Broad St & Porter St,39.919269,-75.170715,Fall 2023,35,1,11,0,10,0
-8367069.706,4859565.481,679,417262N,Bus,4,Northbound,17262,Broad St & Race St,39.956104,-75.162666,Fall 2023,98,23,47,11,40,9
-8367637.88,4856184.517,680,417246N,Bus,4,Northbound,17246,Broad St & Reed  St,39.932819,-75.16777,Fall 2023,19,7,5,6,3,3
-8366819.126,4861039.759,681,417268N,Bus,4,Northbound,17268,Broad St & Ridge Av,39.966255,-75.160415,Fall 2023,40,29,17,20,15,10
-8367934.324,4854402.514,682,417235N,Bus,4,Northbound,17235,Broad St & Ritner St,39.920543,-75.170433,Fall 2023,32,5,6,0,7,0
-8367186.925,4858887.454,683,420414N,Bus,4,Northbound,20414,Broad St & S Penn Square,39.951435,-75.163719,Fall 2023,186,190,111,89,78,55
-8367990.318,4854033.263,684,417233N,Bus,4,Northbound,17233,Broad St & Shunk St,39.917999,-75.170936,Fall 2023,23,0,5,2,5,0
-8367843.376,4854942.481,685,417238N,Bus,4,Northbound,17238,Broad St & Snyder Av,39.924263,-75.169616,Fall 2023,132,22,73,16,50,13
-8366124.381,4865277.039,686,417290N,Bus,4,Northbound,17290,Broad St & Somerset St,39.995422,-75.154174,Fall 2023,13,6,3,4,3,3
-8367376.28,4857738.587,687,414996N,Bus,4,Northbound,14996,Broad St & South St,39.943523,-75.16542,Fall 2023,21,9,13,3,6,4
-8366925.324,4860420.306,688,417265N,Bus,4,Northbound,17265,Broad St & Spring Garden St,39.96199,-75.161369,Fall 2023,95,51,38,15,30,14
-8367296.464,4858224.283,689,45318N,Bus,4,Northbound,5318,Broad St & Spruce St,39.946868,-75.164703,Fall 2023,25,25,13,17,12,13
-8366343.569,4863929.549,690,417282N,Bus,4,Northbound,17282,Broad St & Susquehanna Av,39.986148,-75.156143,Fall 2023,43,66,14,27,9,13
-8367695.655,4855832.33,691,417244N,Bus,4,Northbound,17244,Broad St & Tasker St,39.930393,-75.168289,Fall 2023,35,19,25,9,19,7
-8366656.933,4862032.126,692,417273N,Bus,4,Northbound,17273,Broad St & Thompson St,39.973087,-75.158958,Fall 2023,17,11,7,7,4,5
-8367008.591,4859910.104,693,417263N,Bus,4,Northbound,17263,Broad St & Vine St - FS,39.958477,-75.162117,Fall 2023,25,18,12,12,5,2
-8366842.057,4860905.117,694,417267N,Bus,4,Northbound,17267,Broad St & Wallace St - FS,39.965328,-75.160621,Fall 2023,15,17,4,5,0,2
-8367240.359,4858563.922,695,415941N,Bus,4,Northbound,15941,Broad St & Walnut St,39.949207,-75.164199,Fall 2023,49,104,19,48,15,31
-8367517.321,4856890.09,696,418273N,Bus,4,Northbound,18273,Broad St & Washington Av,39.937679,-75.166687,Fall 2023,47,44,34,20,20,15
-8367605.598,4856360.615,697,417247N,Bus,4,Northbound,17247,Broad St & Wharton St,39.934032,-75.16748,Fall 2023,19,20,8,5,3,1
-8367906.272,4854580.322,698,417236N,Bus,4,Northbound,17236,Broad St & Wolf St,39.921768,-75.170181,Fall 2023,50,15,23,2,12,2
-8366268.762,4864379.079,699,417284N,Bus,4,Northbound,17284,Broad St & York St,39.989242,-75.155471,Fall 2023,8,12,5,10,0,4
-8364418.187,4870721.753,700,417393N,Bus,4,Northbound,17393,Fisher Av & 10th St,40.032882,-75.138847,Fall 2023,6,11,1,14,4,3
-8364526.835,4871882.157,701,417400N,Bus,4,Northbound,17400,Grange Av 11th St - FS,40.040863,-75.139823,Fall 2023,0,10,0,6,0,2
-8364403.715,4872070.749,702,421193N,Bus,4,Northbound,21193,Nedro Av & 11th St,40.04216,-75.138717,Fall 2023,12,34,14,22,8,9
-8364897.195,4866900.112,703,417367N,Bus,4,Northbound,17367,Rising Sun Av & 9th St,40.006591,-75.14315,Fall 2023,8,26,2,13,5,9
-8365299.726,4866667.875,704,417366N,Bus,4,Northbound,17366,Rising Sun Av & 11th St,40.004993,-75.146766,Fall 2023,8,33,3,14,1,8
-8365583.368,4866494.936,705,417363N,Bus,4,Northbound,17363,Rising Sun Av & Germantown Av,40.003803,-75.149314,Fall 2023,11,30,4,23,5,13
-8365473.83,4866565.856,706,417365N,Bus,4,Northbound,17365,Rising Sun Av & Old York Rd - FS,40.004291,-75.14833,Fall 2023,15,10,5,6,3,5
-8365859.44,4866413.991,707,430065N,Bus,4,Northbound,30065,Rising Sun Av & Westmoreland St - FS,40.003246,-75.151794,Fall 2023,23,67,6,25,8,23
-8364639.824,4868483.041,708,416146S,Bus,4,Southbound,16146,9th St & Bristol St - FS,40.017482,-75.140838,Fall 2023,34,1,14,6,6,1
-8364827.509,4867370.851,709,416158S,Bus,4,Southbound,16158,9th St & Butler St,40.00983,-75.142524,Fall 2023,24,12,6,1,6,1
-8364603.311,4868698.168,710,416140S,Bus,4,Southbound,16140,9th St & Cayuga St,40.018962,-75.14051,Fall 2023,37,8,11,3,13,4
-8364523.495,4869131.344,711,416138S,Bus,4,Southbound,16138,9th St & Courtland St,40.021942,-75.139793,Fall 2023,25,6,8,3,8,5
-8364860.682,4867141.365,712,4141S,Bus,4,Southbound,141,9th St & Erie Av,40.008251,-75.142822,Fall 2023,10,4,11,2,3,2
-8364678.897,4868250.186,713,416147S,Bus,4,Southbound,16147,9th St & Hunting Park Av,40.01588,-75.141189,Fall 2023,40,15,18,2,15,3
-8364451.249,4869560.467,714,416136S,Bus,4,Southbound,16136,9th St & Loudon St - FS,40.024894,-75.139144,Fall 2023,14,1,9,0,11,1
-8364759.604,4867767.778,715,416156S,Bus,4,Southbound,16156,9th St & Luzerne St - FS,40.012561,-75.141914,Fall 2023,67,24,21,6,17,6
-8364717.08,4868019.517,716,416148S,Bus,4,Southbound,16148,9th St & Lycoming St,40.014293,-75.141532,Fall 2023,38,3,25,4,16,6
-8364797.007,4867552.671,717,416157S,Bus,4,Southbound,16157,9th St & Pike St - FS,40.011081,-75.14225,Fall 2023,34,11,16,5,8,4
-8364571.028,4868883.937,718,416139S,Bus,4,Southbound,16139,9th St & Wingohocking St - FS,40.02024,-75.14022,Fall 2023,30,20,13,7,6,4
-8364484.422,4869368.581,719,416137S,Bus,4,Southbound,16137,9th St & Wyoming Av,40.023574,-75.139442,Fall 2023,5,4,3,1,0,3
-8364364.642,4871171.01,720,416054S,Bus,4,Southbound,16054,10th St & Clarkson Av,40.035972,-75.138366,Fall 2023,7,1,5,0,3,0
-8364478.522,4870499.313,721,416071S,Bus,4,Southbound,16071,10th St & Duncannon Av,40.031352,-75.139389,Fall 2023,14,10,3,1,4,0
-8364445.349,4870701.835,722,416067S,Bus,4,Southbound,16067,10th St & Fisher Av - FS,40.032745,-75.139091,Fall 2023,33,7,13,1,9,1
-8364515.814,4870273.68,723,416133S,Bus,4,Southbound,16133,10th St & Lindley Av,40.0298,-75.139724,Fall 2023,47,20,16,2,14,1
-8364325.569,4871411.204,724,428699S,Bus,4,Southbound,28699,10th St & Olney Av,40.037624,-75.138015,Fall 2023,65,1,23,0,18,0
-8364588.06,4869840.6,725,416135S,Bus,4,Southbound,16135,10th St & Rockland St,40.026821,-75.140373,Fall 2023,32,10,10,5,12,0
-8364550.657,4870055.756,726,416134S,Bus,4,Southbound,16134,10th St & Ruscomb St,40.028301,-75.140037,Fall 2023,32,11,12,5,9,1
-8364344.271,4871296.341,727,416053S,Bus,4,Southbound,16053,10th St & Tabor Rd,40.036834,-75.138183,Fall 2023,12,0,10,0,7,0
-8364549.766,4870909.305,728,416061S,Bus,4,Southbound,16061,10th St & Wagner Av - FS,40.034172,-75.140029,Fall 2023,15,1,7,0,10,0
-8364469.95,4871965.329,729,421534S,Bus,4,Southbound,21534,11th St & Nedro Av - FS,40.041435,-75.139312,Fall 2023,81,0,43,0,35,0
-8367369.489,4859085.092,730,4515S,Bus,4,Southbound,515,15th St & Market St,39.952796,-75.165359,Fall 2023,178,262,73,138,42,89
-8365989.35,4866190.049,731,421194S,Bus,4,Southbound,21194,Broad St & Allegheny Av,40.001705,-75.152961,Fall 2023,94,58,43,27,25,17
-8367142.731,4859336.03,732,45131S,Bus,4,Southbound,5131,Broad St & Arch St,39.954524,-75.163322,Fall 2023,33,90,22,47,14,31
-8367420.474,4857608.926,733,415192S,Bus,4,Southbound,15192,Broad St & Bainbridge St - FS,39.94263,-75.165817,Fall 2023,6,5,0,7,2,2
-8366474.369,4863299.456,734,417160S,Bus,4,Southbound,17160,Broad St & Berks St,39.981811,-75.157318,Fall 2023,23,9,6,1,2,2
-8368110.098,4853510.616,735,45140S,Bus,4,Southbound,5140,Broad St & Bigler St,39.914398,-75.172012,Fall 2023,1,7,0,4,1,7
-8366813.226,4861287.406,736,45144S,Bus,4,Southbound,5144,Broad St & Brown St,39.96796,-75.160362,Fall 2023,16,19,4,5,3,4
-8367015.382,4860085.687,737,417169S,Bus,4,Southbound,17169,Broad St & Callowhill St,39.959686,-75.162178,Fall 2023,15,14,5,5,1,9
-8367502.85,4857111.064,738,415196S,Bus,4,Southbound,15196,Broad St & Carpenter St,39.939201,-75.166557,Fall 2023,10,31,6,13,6,9
-8367462.886,4857359.193,739,415194S,Bus,4,Southbound,15194,Broad St & Catherine St,39.94091,-75.166198,Fall 2023,12,23,3,7,3,6
-8366546.504,4862856.075,740,417162S,Bus,4,Southbound,17162,Broad St & Cecil B Moore Av,39.978759,-75.157966,Fall 2023,70,72,29,39,21,22
-8367232.789,4858748.921,741,415185S,Bus,4,Southbound,15185,Broad St & Chestnut St - FS,39.950481,-75.164131,Fall 2023,103,62,53,25,44,18
-8367481.588,4857248.994,742,415195S,Bus,4,Southbound,15195,Broad St & Christian St,39.940151,-75.166366,Fall 2023,29,71,5,13,4,5
-8366034.435,4865923.97,743,45169S,Bus,4,Southbound,5169,Broad St & Clearfield St - FS,39.999874,-75.153366,Fall 2023,26,5,9,1,8,2
-8366250.951,4864628.989,744,417135S,Bus,4,Southbound,17135,Broad St & Cumberland St,39.990962,-75.155311,Fall 2023,22,10,8,5,7,2
-8368231.547,4852976.387,745,417209S,Bus,4,Southbound,17209,Broad St & Curtain St,39.910717,-75.173103,Fall 2023,1,5,0,2,1,4
-8366323.977,4864197.318,746,417137S,Bus,4,Southbound,17137,Broad St & Dauphin St,39.987991,-75.155967,Fall 2023,30,20,14,5,10,2
-8366401.232,4863737.771,747,417158S,Bus,4,Southbound,17158,Broad St & Diamond St,39.984828,-75.156661,Fall 2023,20,16,14,3,12,1
-8367686.304,4856039.343,748,417187S,Bus,4,Southbound,17187,Broad St & Dickinson St,39.931819,-75.168205,Fall 2023,5,24,2,13,2,12
-8367561.404,4856771.039,749,417177S,Bus,4,Southbound,17177,Broad St & Ellsworth St,39.936859,-75.167083,Fall 2023,15,17,6,16,3,14
-8367586.896,4856622.518,750,417180S,Bus,4,Southbound,17180,Broad St & Federal St,39.935836,-75.167312,Fall 2023,31,31,12,8,9,7
-8367439.175,4857505.983,751,415193S,Bus,4,Southbound,15193,Broad St & Fitzwater St,39.941921,-75.165985,Fall 2023,9,16,4,8,2,6
-8368263.83,4852789.755,752,4150S,Bus,4,Southbound,150,Broad St & Geary St,39.909431,-75.173393,Fall 2023,1,8,0,3,0,1
-8366724.838,4861813.222,753,4143S,Bus,4,Southbound,143,Broad St & Girard Av,39.97158,-75.159568,Fall 2023,56,74,30,31,20,22
-8366107.46,4865489.917,754,417129S,Bus,4,Southbound,17129,Broad St & Glenwood Av,39.996887,-75.154022,Fall 2023,20,7,11,8,10,7
-8366915.974,4860631.337,755,417167S,Bus,4,Southbound,17167,Broad St & Green St,39.963443,-75.161285,Fall 2023,10,20,7,7,5,3
-8368291.882,4852609.801,756,431309S,Bus,4,Southbound,31309,Broad St & Hartranft St,39.908191,-75.173645,Fall 2023,0,12,0,7,0,4
-8366215.329,4864848.537,757,417134S,Bus,4,Southbound,17134,Broad St & Huntingdon St,39.992473,-75.154991,Fall 2023,19,12,5,4,4,2
-8366064.157,4865743.778,758,417127S,Bus,4,Southbound,17127,Broad St & Indiana Av,39.998634,-75.153633,Fall 2023,9,10,5,2,4,0
-8367892.691,4854796.165,759,45221S,Bus,4,Southbound,5221,Broad St & Jackson St,39.923255,-75.170059,Fall 2023,4,24,2,9,1,14
-8366617.86,4862449.322,760,417163S,Bus,4,Southbound,17163,Broad St & Jefferson St,39.975959,-75.158607,Fall 2023,25,10,13,7,2,3
